stop_id,stop_code,stop_name,stop_desc,stop_lat,stop_lon,agency_id,stop_jurisdiction,location_type,parent_station,position,direction,wheelchair_boarding
1123,1123,Roth & Ruskin (EB),This stop (#1123) is eastbound on the 1799 block of ROTH ST nearside RUSKIN ST,43.111258,-89.361482,MMT,CMAD,0,,nearside,eastbound,0
1161,1161,N Sherman & Roth (NB),This stop (#1161) is northbound on the 1099 block of SHERMAN AVE (N) nearside ROTH ST,43.111429,-89.36368,MMT,CMAD,0,,nearside,northbound,1
1572,1572,Roth & N Sherman (WB),This stop (#1572) is westbound on the 1700 block of ROTH ST nearside SHERMAN AVE (N),43.111671,-89.363618,MMT,CMAD,0,,nearside,westbound,1
3150,3150,Nob Hill & Badger (WB),This stop (#3150) is westbound on the 98 block of NOB HILL RD nearside BADGER LN,43.041557,-89.374216,MMT,TMAD,0,,nearside,westbound,0
3505,3505,Nob Hill & Badger (EB),This stop (#3505) is eastbound on the 99 block of NOB HILL RD farside BADGER LN,43.041413,-89.373945,MMT,TMAD,0,,farside,eastbound,0
4350,4350,Chalet Gardens & Verona E (WB),This stop (#4350) is westbound on the 2301 block of CHALET GARDENS RD nearside VERONA FRONTAGE (E),43.027863,-89.463642,MMT,CFIT,0,,nearside,westbound,0
4387,4387,E Cheryl & Research Park (EB),This stop (#4387) is eastbound on the 5499 block of E CHERYL PKWY farside RESEARCH PARK DR,43.004916,-89.424608,MMT,CFIT,0,,farside,eastbound,0
4400,4400,Northern Lights & Epic Staff B (SB),This stop (#4400) is southbound on the 2601 block of NORTHERN LIGHTS BLVD adjacent EPIC STAFF B,42.995476,-89.564243,MMT,PEPC,0,,adjacent,southbound,1
4416,4416,Crescent & Sentinel (SB),This stop (#4416) is southbound on the 4400 block of CRESCENT RD farside SENTINEL PASS,43.026953,-89.44901,MMT,CFIT,0,,farside,southbound,0
4432,4432,Lovell & Allied (WB),This stop (#4432) is westbound on the 4800 block of LOVELL LN farside ALLIED DR,43.02695,-89.460089,MMT,CMAD,0,,farside,westbound,1
4493,4493,Executive & Marketplace (EB),This stop (#4493) is eastbound on the 5950 block of EXECUTIVE DR farside MARKETPLACE DR,43.01304,-89.457232,MMT,CFIT,0,,farside,eastbound,0
4715,4715,Stewart & Watford (EB),This stop (#4715) is eastbound on the 1001 block of STEWART ST nearside WATFORD WAY,43.02997,-89.399738,MMT,CMAD,0,,nearside,eastbound,0
4810,4810,Verona E & Capital City (SB),This stop (#4810) is southbound on the 5198 block of VERONA FRONTAGE (E) adjacent CAPITOL CITY PATH,43.025946,-89.466478,MMT,CFIT,0,,adjacent,southbound,0
4820,4820,Verona E & Williamsburg (SB),This stop (#4820) is southbound on the 5298 block of VERONA FRONTAGE (E) nearside WILLIAMSBURG WAY,43.023555,-89.468031,MMT,CFIT,0,,nearside,southbound,0
4833,4833,King James & Anton (EB),This stop (#4833) is eastbound on the 2998 block of KING JAMES WAY nearside ANTON DR,43.019157,-89.473937,MMT,CFIT,0,,nearside,eastbound,0
4870,4870,Lovell & Chalet Gardens (WB),This stop (#4870) is westbound on the 4998 block of LOVELL LN nearside CHALET GARDENS RD,43.026798,-89.462136,MMT,CFIT,0,,nearside,westbound,0
6219,6219,Tree & S Gammon (EB),This stop (#6219) is eastbound on the 7001 block of TREE LN nearside GAMMON RD (S),43.065463,-89.503089,MMT,CMAD,0,,nearside,eastbound,1
6242,6242,S Westfield & Oak Creek (SB),This stop (#6242) is southbound on the 98 block of WESTFIELD RD (S) farside OAK CREEK TRL,43.066426,-89.50862,MMT,CMAD,0,,farside,southbound,0
6276,6276,Grand Canyon & Mineral Point (SB),This stop (#6276) is southbound on the 398 block of GRAND CANYON DR nearside MINERAL POINT RD,43.061625,-89.497258,MMT,CMAD,0,,nearside,southbound,1
6314,6314,N Westfield & Farmington (SB),This stop (#6314) is southbound on the 298 block of WESTFIELD RD (N) farside FARMINGTON WAY,43.070642,-89.510526,MMT,CMAD,0,,farside,southbound,0
6373,6373,Grand Canyon & Mineral Point (NB),This stop (#6373) is northbound on the 399 block of GRAND CANYON DR farside MINERAL POINT RD,43.061491,-89.496962,MMT,CMAD,0,,farside,northbound,1
6445,6445,S Gammon & Memorial High (NB),This stop (#6445) is northbound on the 201 block of GAMMON RD (S) adjacent MEMORIAL HIGH,43.064263,-89.502396,MMT,CMAD,0,,adjacent,northbound,1
6540,6540,Colony & N Gammon (WB),This stop (#6540) is westbound on the 6998 block of COLONY DR nearside GAMMON RD (N),43.068534,-89.502352,MMT,CMAD,0,,nearside,westbound,0
6715,6715,S Westfield & Mineral Point (NB),This stop (#6715) is northbound on the 399 block of WESTFIELD RD (S) farside MINERAL POINT RD,43.060992,-89.507626,MMT,CMAD,0,,farside,northbound,1
6773,6773,N Westfield & Farmington (NB),This stop (#6773) is northbound on the 299 block of WESTFIELD RD (N) nearside FARMINGTON WAY,43.070758,-89.510242,MMT,CMAD,0,,nearside,northbound,0
6807,6807,Farmington & N Gammon (EB),This stop (#6807) is eastbound on the 7001 block of FARMINGTON WAY nearside GAMMON RD (N),43.07156,-89.502701,MMT,CMAD,0,,nearside,eastbound,0
6815,6815,S Westfield & Oak Creek (NB),This stop (#6815) is northbound on the 99 block of WESTFIELD RD (S) nearside OAK CREEK TRL,43.06656,-89.508336,MMT,CMAD,0,,nearside,northbound,0
6835,6835,University & Maple (NB),This stop (#6835) is northbound on the 6600 block of UNIVERSITY AVE nearside MAPLE ST,43.095407,-89.493837,MMT,CMID,0,,nearside,northbound,0
6934,6934,S Gammon & Memorial High (SB),This stop (#6934) is southbound on the 200 block of GAMMON RD (S) opposite MEMORIAL HIGH,43.063574,-89.502914,MMT,CMAD,0,,opposite,southbound,1
6959,6959,S Gammon & Mineral Point (NB),This stop (#6959) is northbound on the 399 block of GAMMON RD (S) farside MINERAL POINT RD,43.061103,-89.502479,MMT,CMAD,0,,farside,northbound,1
6962,6962,S Westfield & Mineral Point (SB),This stop (#6962) is southbound on the 398 block of WESTFIELD RD (S) nearside MINERAL POINT RD,43.061261,-89.50791,MMT,CMAD,0,,nearside,southbound,0
6968,6968,Farmington & N Gammon (WB),This stop (#6968) is westbound on the 7000 block of FARMINGTON WAY farside GAMMON RD (N),43.071774,-89.502861,MMT,CMAD,0,,farside,westbound,0
7143,7143,Galileo & Apollo (NB),This stop (#7143) is northbound on the 701 block of GALILEO DR nearside APOLLO WAY,43.087644,-89.276368,MMT,CMAD,0,,nearside,northbound,0
7440,7440,Vicksburg & Galileo (WB),This stop (#7440) is westbound on the 6100 block of VICKSBURG RD nearside GALILEO DR,43.089726,-89.273375,MMT,CMAD,0,,nearside,westbound,0
7677,7677,Vicksburg & Traveler (EB),This stop (#7677) is eastbound on the 6299 block of VICKSBURG RD nearside TRAVELER LN,43.089544,-89.270672,MMT,CMAD,0,,nearside,eastbound,0
7858,7858,Galileo & Apollo (SB),This stop (#7858) is southbound on the 698 block of GALILEO DR nearside APOLLO WAY,43.088046,-89.276207,MMT,CMAD,0,,nearside,southbound,0
8184,8184,Stonecreek & Mckee (SB),This stop (#8184) is southbound on the 3200 block of STONECREEK DR farside MCKEE RD,43.015428,-89.503302,MMT,CMAD,0,,farside,southbound,0
8288,8288,Maple Grove & Stratford (SB),This stop (#8288) is southbound on the 2916 block of MAPLE GROVE DR farside STRATFORD DR,43.021858,-89.498906,MMT,CMAD,0,,farside,southbound,0
8319,8319,Brookwood & Hammersley (NB),This stop (#8319) is northbound on the 1299 block of BROOKWOOD RD farside HAMMERSLEY RD,43.039554,-89.485673,MMT,CMAD,0,,farside,northbound,1
8359,8359,Maple Grove & Stratford (NB),This stop (#8359) is northbound on the 2915 block of MAPLE GROVE DR nearside STRATFORD DR,43.021428,-89.498609,MMT,CMAD,0,,nearside,northbound,0
8376,8376,Muir Field & Mckee (SB),This stop (#8376) is southbound on the 3198 block of MUIR FIELD RD nearside MCKEE RD,43.016112,-89.511641,MMT,CMAD,0,,nearside,southbound,0
8463,8463,Stonecreek & East Pass (NB),This stop (#8463) is northbound on the 3299 block of STONECREEK DR farside EAST PASS,43.012895,-89.502349,MMT,CMAD,0,,farside,northbound,0
8561,8561,Stratford & Shefford (EB),This stop (#8561) is eastbound on the 6899 block of STRATFORD DR farside SHEFFORD DR,43.021642,-89.500731,MMT,CMAD,0,,farside,eastbound,0
8694,8694,Stratford & Shefford (WB),This stop (#8694) is westbound on the 6900 block of STRATFORD DR farside SHEFFORD DR,43.021606,-89.501533,MMT,CMAD,0,,farside,westbound,0
8718,8718,Stonecreek & East Pass (SB),This stop (#8718) is southbound on the 3298 block of STONECREEK DR nearside EAST PASS,43.01276,-89.502645,MMT,CMAD,0,,nearside,southbound,0
8806,8806,East Pass & Maple Grove (WB),This stop (#8806) is westbound on the 6700 block of EAST PASS farside MAPLE GROVE DR,43.0127,-89.499303,MMT,CMAD,0,,farside,westbound,0
8865,8865,Stonecreek & Mckee (NB),This stop (#8865) is northbound on the 3201 block of STONECREEK DR nearside MCKEE RD,43.015562,-89.503006,MMT,CMAD,0,,nearside,northbound,0
9338,9338,Portage & Old Gate (SB),This stop (#9338) is southbound on the 3520 block of PORTAGE RD nearside OLD GATE RD,43.139456,-89.3114,MMT,CMAD,0,,nearside,southbound,0
9793,9793,City View & Burke (NB),This stop (#9793) is northbound on the 3099 block of CITY VIEW DR nearside BURKE RD,43.135691,-89.287732,MMT,CMAD,0,,nearside,northbound,0
9860,9860,E Springs & Zeier (WB),This stop (#9860) is westbound on the 2000 block of EAST SPRINGS DR nearside ZEIER RD,43.125343,-89.299933,MMT,CMAD,0,,nearside,westbound,0
1110,1110,E Dayton & Wisconsin (WB),This EVENT/DETOUR ONLY stop (#1110) is westbound on the 2 block of E DAYTON ST nearside of WISCONSIN AV,43.076428,-89.385920,MMT,CMAD,0,,nearside,westbound,1
1111,1111,W Doty & M L K Junior (EB),This EVENT/DETOUR ONLY stop (#1111) is eastbound on the 1 block of W DOTY ST nearside of MARTIN LUTHER KING JR BLVD,43.072938,-89.382354,MMT,CMAD,0,,nearside,eastbound,1
1124,1124,S Fairchild & W Main (SB),This EVENT/DETOUR ONLY stop (#1124) is southbound on the 98 block of S FAIRCHILD ST nearside of W MAIN ST,43.072467,-89.385273,MMT,CMAD,0,,nearside,southbound,1
1135,1135,N Webster & E Mifflin (NB),This EVENT/DETOUR ONLY stop (#1135) is northbound on the 101 block of N WEBSTER ST farside of E MIFFLIN ST,43.077272,-89.383413,MMT,CMAD,0,,farside,northbound,1
1140,1140,E Washington & N Webster (WB),This EVENT/DETOUR ONLY stop (#1140) is westbound on the 200 block of E WASHINGTON AV nearside of N WEBSTER ST,43.076390,-89.381930,MMT,CMAD,0,,nearside,westbound,1
1146,1146,N Fairchild & W Washington (SB),This EVENT/DETOUR ONLY stop (#1146) is southbound on the 50 block of N FAIRCHILD ST nearside of W WASHINGTON AV,43.073504,-89.386724,MMT,CMAD,0,,nearside,southbound,1
1155,1155,S Webster & E Main (NB),This EVENT/DETOUR ONLY stop (#1155) is northbound on the 99 block of S WEBSTER ST farside of E MAIN ST,43.075579,-89.381192,MMT,CMAD,0,,farside,northbound,1
1174,1174,W Dayton & State (WB),This EVENT/DETOUR ONLY stop (#1174) is westbound on the 198 block of W DAYTON ST nearside of STATE ST,43.075120,-89.387855,MMT,CMAD,0,,nearside,westbound,1
1189,1189,E Doty & S Pinckney (EB),This EVENT/DETOUR ONLY stop (#1189) is eastbound on the 101 block of E DOTY ST nearside of S PINCKNEY ST,43.074111,-89.380724,MMT,CMAD,0,,farside,eastbound,1
4000,SoTP,South Transfer Point,The South Transfer Point station is located at 2430 S PARK ST - just north of W BADGER RD,43.038957,-89.394651,MMT,MTSM,1,,,,1
4100,4100,South Transfer Point,This stop (#4100) is on the pedestrian island at the South Transfer Point station,43.038895,-89.394824,MMT,MTSM,0,4000,adjacent,southbound,1
5000,NoTP,North Transfer Point,The North Transfer Point station is located at 1213 HUXLEY ST - just south of ABERG AVE,43.112918,-89.358526,MMT,MTSM,1,,,,1
5100,5100,North Transfer Point,This stop (#5100) is on the pedestrian island at the North Transfer Point station,43.113253,-89.358540,MMT,MTSM,0,5000,adjacent,southbound,1
6000,WeTP,West Transfer Point,The West Transfer Point station is located at 5700 TOKAY BLVD - just west of WHITNEY WAY,43.053863,-89.475454,MMT,MTSM,1,,,,1
6100,6100,West Transfer Point,This stop (#6100) is on the pedestrian island at the West Transfer Point station,43.053883,-89.475098,MMT,MTSM,0,6000,adjacent,eastbound,1
7000,EaTP,East Transfer Point,The East Transfer Point station is located at 102 W CORPORATE DR - just north of MILWAUKEE ST,43.098624,-89.322251,MMT,MTSM,1,,,,1
7100,7100,East Transfer Point,This stop (#7100) is on the pedestrian island at the East Transfer Point station,43.098619,-89.322148,MMT,MTSM,0,7000,adjacent,eastbound,1
9000,9800,East Towne Ring,The East Towne ring road shelter stop (#9800) is located at 89 E TOWNE ML - just southeast of E TOWNE BL and INDEPENDENCE LA,43.126161,-89.307135,MMT,PRIV,1,,,,1
9800,9800,E Towne Ring & Shelter (EB),This stop (#9800) is eastbound on the 2000 block of EAST TOWNE RING adjacent E TOWNE SHELTER,43.126576,-89.306961,MMT,PRIV,0,9000,adjacent,eastbound,1
5,0005,W Dayton & N Orchard (EB),This stop (#0005) is eastbound on the 1299 block of DAYTON ST (W) farside ORCHARD ST (N),43.070947,-89.406982,MMT,CMAD,0,,farside,eastbound,1
10,0010,Langdon & N Park (WB),This stop (#0010) is westbound on the 898 block of LANGDON ST nearside PARK ST (N),43.075933,-89.400154,MMT,CMAD,0,,nearside,westbound,1
25,0025,Langdon & N Lake (EB),This stop (#0025) is eastbound on the 699 block of LANGDON ST farside LAKE ST (N),43.075691,-89.396944,MMT,CMAD,0,,farside,eastbound,1
39,0039,N Lake & W Johnson (NB),This stop (#0039) is northbound on the 299 block of LAKE ST (N) nearside JOHNSON ST (W),43.071895,-89.397341,MMT,CMAD,0,,nearside,northbound,1
45,0045,Langdon & N Carroll (EB),This stop (#0045) is eastbound on the 99 block of LANGDON ST farside CARROLL ST (N),43.078482,-89.38982,MMT,CMAD,0,,farside,eastbound,0
47,0047,Babcock & Linden (NB),This stop (#0047) is northbound on the 499 block of BABCOCK DR nearside LINDEN DR,43.074636,-89.412598,MMT,UWIS,0,,nearside,northbound,1
49,0049,N Lake & Langdon (NB),This stop (#0049) is northbound on the 599 block of LAKE ST (N) nearside LANGDON ST,43.075529,-89.397191,MMT,CMAD,0,,nearside,northbound,1
50,0050,Spring & N Brooks (WB),This stop (#0050) is westbound on the 998 block of SPRING ST nearside BROOKS ST (N),43.069442,-89.402267,MMT,CMAD,0,,nearside,westbound,1
52,0052,Observatory & N Charter (WB),This stop (#0052) is westbound on the 1198 block of OBSERVATORY DR nearside CHARTER ST (N),43.076131,-89.40566,MMT,UWIS,0,,nearside,westbound,1
53,0053,Observatory & North Hall (EB),This stop (#0053) is eastbound on the 1099 block of OBSERVATORY DR adjacent NORTH HALL,43.075781,-89.403882,MMT,UWIS,0,,adjacent,eastbound,1
54,0054,Spring & N Mills (WB),This stop (#0054) is westbound on the 1098 block of SPRING ST nearside MILLS ST (N),43.06947,-89.403872,MMT,CMAD,0,,nearside,westbound,1
56,0056,Observatory & Liz Waters (WB),This stop (#0056) is westbound on the 1300 block of OBSERVATORY DR adjacent ELIZABETH WATERS HALL,43.07665,-89.407141,MMT,UWIS,0,,adjacent,westbound,1
60,0060,Observatory & Bascom (WB),This stop (#0060) is westbound on the 1100 block of OBSERVATORY DR adjacent BASCOM HALL,43.075996,-89.40366,MMT,UWIS,0,,adjacent,westbound,1
61,0061,W Dayton & N Mills (EB),This stop (#0061) is eastbound on the 1099 block of DAYTON ST (W) farside MILLS ST (N),43.070893,-89.403698,MMT,CMAD,0,,farside,eastbound,1
68,0068,N Lake & W Johnson (SB),This stop (#0068) is southbound on the 300 block of LAKE ST (N) nearside JOHNSON ST (W),43.072172,-89.397625,MMT,CMAD,0,,nearside,southbound,1
70,0070,N Park & Lathrop (SB),This stop (#0070) is southbound on the 500 block of PARK ST (N) nearside LATHROP DR,43.07433,-89.400784,MMT,CMAD,0,,nearside,southbound,1
73,0073,W Dayton & E Campus (EB),This stop (#0073) is eastbound on the 799 block of DAYTON ST (W) farside EAST CAMPUS MALL,43.07082,-89.39865,MMT,CMAD,0,,farside,eastbound,1
77,0077,W Dayton & N Park (EB),This stop (#0077) is eastbound on the 901 block of DAYTON ST (W) nearside PARK ST (N),43.070857,-89.401119,MMT,CMAD,0,,nearside,eastbound,1
87,0087,N Broom & W Gorham (NB),This stop (#0087) is northbound on the 399 block of BROOM ST (N) nearside GORHAM ST (W),43.07415,-89.392328,MMT,CMAD,0,,nearside,northbound,1
89,0089,Langdon & N Henry (EB),This stop (#0089) is eastbound on the 199 block of LANGDON ST farside HENRY ST (N),43.076844,-89.392142,MMT,CMAD,0,,farside,eastbound,1
96,0096,Wisconsin & W Gorham (SB),This stop (#0096) is southbound on the 400 block of WISCONSIN AVE nearside GORHAM ST (W),43.077515,-89.388055,MMT,CMAD,0,,nearside,southbound,0
99,0099,Langdon & N Park (EB),This stop (#0099) is eastbound on the 899 block of LANGDON ST farside PARK ST (N),43.075745,-89.400179,MMT,CMAD,0,,farside,eastbound,1
100,0100,University & N Park (WB),This stop (#0100) is westbound on the 900 block of UNIVERSITY AVE farside PARK ST (N),43.073399,-89.401365,MMT,CMAD,0,,farside,westbound,1
104,0104,N Mills & W Dayton (SB),This stop (#0104) is southbound on the 200 block of MILLS ST (N) nearside DAYTON ST (W),43.071144,-89.404229,MMT,CMAD,0,,nearside,southbound,1
107,0107,S Park & W Olin (NB),This stop (#0107) is northbound on the 1117 block of PARK ST (S) farside OLIN AVE (W),43.054383,-89.396533,MMT,CMAD,0,,farside,northbound,1
110,0110,Gilson & Beld (WB),This stop (#0110) is westbound on the 1698 block of GILSON ST nearside BELD ST,43.049924,-89.392561,MMT,CMAD,0,,nearside,westbound,0
113,0113,W Washington & Brittingham (EB),This stop (#0113) is eastbound on the 801 block of W WASHINGTON AVE adjacent BRITTINGHAM PARK,43.06501,-89.397603,MMT,CMAD,0,,adjacent,eastbound,1
115,0115,N Park & Regent (NB),This stop (#0115) is northbound on the 21 block of PARK ST (N) farside REGENT ST,43.067983,-89.400724,MMT,CMAD,0,,farside,northbound,1
121,0121,W Badger & Fiedler (EB),This stop (#0121) is eastbound on the 1099 block of BADGER RD (W) farside FIEDLER LN,43.038466,-89.401117,MMT,TMAD,0,,farside,eastbound,1
124,0124,S Park & Wingra (SB),This stop (#0124) is southbound on the 1700 block of PARK ST (S) farside WINGRA DR (W),43.048957,-89.394289,MMT,CMAD,0,,farside,southbound,1
133,0133,University & N Breese (EB),This stop (#0133) is eastbound on the 1599 block of UNIVERSITY AVE farside BREESE TER (N),43.073275,-89.413154,MMT,CMAD,0,,farside,eastbound,1
146,0146,Fish Hatchery & Midland (SB),This stop (#0146) is southbound on the 1200 block of FISH HATCHERY RD farside MIDLAND ST,43.053981,-89.399186,MMT,CMAD,0,,farside,southbound,1
147,0147,W Olin & Hickory (EB),This stop (#0147) is eastbound on the 599 block of OLIN AVE (W) farside HICKORY ST,43.053872,-89.391782,MMT,CMAD,0,,farside,eastbound,1
150,0150,N Rusk & Nygard (SB),This stop (#0150) is southbound on the 2198 block of RUSK AVE (N) nearside NYGARD ST,43.041193,-89.384359,MMT,CMAD,0,,nearside,southbound,1
153,0153,E Olin & Expo (EB),This stop (#0153) is eastbound on the 199 block of OLIN AVE (E) farside EXPO PKWY,43.052132,-89.38075,MMT,TMAD,0,,farside,eastbound,1
158,0158,S Mills & Vilas (SB),This stop (#0158) is southbound on the 400 block of MILLS ST (S) farside VILAS AVE,43.062871,-89.404194,MMT,CMAD,0,,farside,southbound,1
160,0160,University & N Randall (WB),This stop (#0160) is westbound on the 1400 block of UNIVERSITY AVE farside RANDALL AVE (N),43.073481,-89.409413,MMT,CMAD,0,,farside,westbound,1
161,0161,S Broom & W Doty (NB),This stop (#0161) is northbound on the 199 block of BROOM ST (S) farside DOTY ST (W),43.070146,-89.387071,MMT,CMAD,0,,farside,northbound,1
162,0162,S Park & Meriter (SB),This stop (#0162) is southbound on the 100 block of PARK ST (S) adjacent MERITER HOSPITAL,43.065091,-89.400997,MMT,CMAD,0,,adjacent,southbound,1
166,0166,Rimrock & John Nolen (WB),This stop (#0166) is westbound on the 2000 block of RIMROCK RD farside JOHN NOLEN DR,43.045854,-89.375546,MMT,TMAD,0,,farside,westbound,1
167,0167,S Mills & Mound (NB),This stop (#0167) is northbound on the 201 block of MILLS ST (S) nearside MOUND ST,43.065181,-89.403898,MMT,CMAD,0,,nearside,northbound,1
168,0168,W Washington & N Henry (WB),This stop (#0168) is westbound on the 298 block of W WASHINGTON AVE nearside HENRY ST (N),43.072787,-89.38707,MMT,CMAD,0,,nearside,westbound,1
170,0170,Fish Hatchery & Catalpa (SB),This stop (#0170) is southbound on the 2198 block of FISH HATCHERY RD nearside CATALPA RD,43.041645,-89.404114,MMT,CMAD,0,,nearside,southbound,1
171,0171,Fisher & Dane (NB),This stop (#0171) is northbound on the 2101 block of FISHER ST nearside DANE ST,43.042923,-89.39175,MMT,CMAD,0,,nearside,northbound,1
173,0173,W Badger & Cypress (EB),This stop (#0173) is eastbound on the 901 block of BADGER RD (W) nearside CYPRESS WAY,43.03843,-89.397946,MMT,TMAD,0,,nearside,eastbound,1
174,0174,S Park & Fish Hatchery (SB),This stop (#0174) is southbound on the 1000 block of PARK ST (S) farside FISH HATCHERY RD,43.056451,-89.398716,MMT,CMAD,0,,farside,southbound,1
178,0178,University & N Orchard (WB),This stop (#0178) is westbound on the 1300 block of UNIVERSITY AVE farside ORCHARD ST (N),43.073427,-89.407056,MMT,CMAD,0,,farside,westbound,1
180,0180,N Park & W Dayton (SB),This stop (#0180) is southbound on the 200 block of PARK ST (N) nearside DAYTON ST (W),43.071098,-89.401081,MMT,CMAD,0,,nearside,southbound,1
181,0181,S Park & Beld (NB),This stop (#0181) is northbound on the 1399 block of PARK ST (S) farside BELD ST,43.052252,-89.394806,MMT,CMAD,0,,farside,northbound,1
184,0184,Linden & Henry (WB),This stop (#0184) is westbound on the 1498 block of LINDEN DR nearside HENRY MALL,43.075254,-89.410413,MMT,UWIS,0,,nearside,westbound,1
190,0190,N Mills & Regent (SB),This stop (#0190) is southbound on the 2 block of MILLS ST (N) nearside REGENT ST,43.067849,-89.404205,MMT,CMAD,0,,nearside,southbound,1
192,0192,W Olin & Hickory (WB),This stop (#0192) is westbound on the 598 block of OLIN AVE (W) nearside HICKORY ST,43.054087,-89.391967,MMT,CMAD,0,,nearside,westbound,1
195,0195,S Park & Park House (NB),This stop (#0195) is northbound on the 1801 block of PARK ST (S) adjacent PARK HOUSE APTS,43.04705,-89.393808,MMT,CMAD,0,,adjacent,northbound,0
203,0203,Rimrock & E Rusk (NB),This stop (#0203) is northbound on the 2199 block of RIMROCK RD farside RUSK AVE (E),43.043214,-89.376979,MMT,TMAD,0,,farside,northbound,1
208,0208,Regent & N Orchard (WB),This stop (#0208) is westbound on the 1298 block of REGENT ST nearside ORCHARD ST (N),43.067849,-89.407131,MMT,CMAD,0,,nearside,westbound,1
217,0217,S Park & W Washington (NB),This stop (#0217) is northbound on the 399 block of PARK ST (S) farside W WASHINGTON AVE,43.063668,-89.400528,MMT,CMAD,0,,farside,northbound,1
222,0222,Fisher & Bram (SB),This stop (#0222) is southbound on the 1900 block of FISHER ST farside BRAM ST,43.045474,-89.391946,MMT,CMAD,0,,farside,southbound,1
225,0225,W Washington & Park View (EB),This stop (#0225) is eastbound on the 749 block of W WASHINGTON AVE adjacent PARK VIEW APTS,43.066066,-89.396121,MMT,CMAD,0,,adjacent,eastbound,1
226,0226,Regent & E Campus (WB),This stop (#0226) is westbound on the 700 block of REGENT ST nearside EAST CAMPUS MALL,43.067839,-89.397688,MMT,CMAD,0,,nearside,westbound,0
234,0234,University & N Mills (WB),This stop (#0234) is westbound on the 1098 block of UNIVERSITY AVE nearside MILLS ST (N),43.073427,-89.403883,MMT,CMAD,0,,nearside,westbound,1
235,0235,W Washington & S Henry (EB),This stop (#0235) is eastbound on the 301 block of W WASHINGTON AVE nearside HENRY ST (S),43.072456,-89.387144,MMT,CMAD,0,,nearside,eastbound,1
243,0243,John Nolen & Rimrock (NB),This stop (#0243) is northbound on the 698 block of JOHN NOLEN DR farside RIMROCK RD,43.047242,-89.374681,MMT,CMAD,0,,farside,northbound,1
245,0245,N Randall & Engineering (NB),This stop (#0245) is northbound on the 299 block of RANDALL AVE (N) nearside ENGINEERING DR,43.072093,-89.40887,MMT,CMAD,0,,nearside,northbound,1
248,0248,W Wilson & S Carroll (WB),This stop (#0248) is westbound on the 98 block of WILSON ST (W) nearside CARROLL ST (S),43.071891,-89.382453,MMT,CMAD,0,,nearside,westbound,1
249,0249,Monroe & Regent (EB),This stop (#0249) is eastbound on the 1501 block of MONROE ST nearside REGENT ST,43.067644,-89.412834,MMT,CMAD,0,,nearside,eastbound,1
251,0251,S Park & Erin (NB),This stop (#0251) is northbound on the 699 block of PARK ST (S) farside ERIN ST,43.060167,-89.40053,MMT,CMAD,0,,farside,northbound,1
252,0252,State & W Gorham (WB),This stop (#0252) is westbound on the 398 block of STATE ST nearside GORHAM ST (W),43.07491,-89.391303,MMT,CMAD,0,,nearside,westbound,1
256,0256,N Mills & University (SB),This stop (#0256) is southbound on the 398 block of MILLS ST (N) farside UNIVERSITY AVE,43.073051,-89.404241,MMT,CMAD,0,,farside,southbound,1
265,0265,State & N Lake (EB),This stop (#0265) is eastbound on the 699 block of STATE ST farside LAKE ST (N),43.074786,-89.396908,MMT,CMAD,0,,farside,eastbound,1
266,0266,Fish Hatchery & S Park (SB),This stop (#0266) is southbound on the 1000 block of FISH HATCHERY RD farside PARK ST (S),43.056496,-89.399124,MMT,CMAD,0,,farside,southbound,1
271,0271,Regent & S Park (EB),This stop (#0271) is eastbound on the 899 block of REGENT ST farside PARK ST (S),43.067544,-89.40049,MMT,CMAD,0,,farside,eastbound,0
273,0273,Regent & E Campus (EB),This stop (#0273) is eastbound on the 701 block of REGENT ST farside EAST CAMPUS MALL,43.067427,-89.397231,MMT,CMAD,0,,farside,eastbound,0
274,0274,W Washington & N Broom (WB),This stop (#0274) is westbound on the 400 block of W WASHINGTON AVE farside BROOM ST (N),43.071248,-89.389243,MMT,CMAD,0,,farside,westbound,1
288,0288,S Park & Erin (SB),This stop (#0288) is southbound on the 700 block of PARK ST (S) farside ERIN ST,43.059621,-89.400999,MMT,CMAD,0,,farside,southbound,1
289,0289,W Olin & Gilson (EB),This stop (#0289) is eastbound on the 499 block of OLIN AVE (W) farside GILSON ST,43.053844,-89.389869,MMT,CMAD,0,,farside,eastbound,0
294,0294,N Rusk & E Rusk (SB),This stop (#0294) is southbound on the 2398 block of RUSK AVE (N) nearside RUSK AVE (E),43.039304,-89.38436,MMT,TMAD,0,,nearside,southbound,0
298,0298,Babcock & Linden (SB),This stop (#0298) is southbound on the 500 block of BABCOCK DR nearside LINDEN DR,43.07529,-89.412894,MMT,UWIS,0,,nearside,southbound,1
300,0300,Erin & S Mills (WB),This stop (#0300) is westbound on the 1098 block of ERIN ST nearside MILLS ST (S),43.059989,-89.40385,MMT,CMAD,0,,nearside,westbound,1
313,0313,W Wilson & S Bassett (EB),This stop (#0313) is eastbound on the 451 block of WILSON ST (W) farside BASSETT ST (S),43.068418,-89.386949,MMT,CMAD,0,,farside,eastbound,1
320,0320,Fisher & Dane (SB),This stop (#0320) is southbound on the 2098 block of FISHER ST nearside DANE ST,43.04312,-89.392033,MMT,CMAD,0,,nearside,southbound,1
327,0327,Regent & S Mills (EB),This stop (#0327) is eastbound on the 1099 block of REGENT ST farside MILLS ST (S),43.067598,-89.403675,MMT,CMAD,0,,farside,eastbound,1
336,0336,N Randall & Engineering (SB),This stop (#0336) is southbound on the 298 block of RANDALL AVE (N) farside ENGINEERING DR,43.072028,-89.409136,MMT,CMAD,0,,farside,southbound,1
341,0341,N Park & University (NB),This stop (#0341) is northbound on the 399 block of PARK ST (N) nearside UNIVERSITY AVE,43.07314,-89.400414,MMT,CMAD,0,,nearside,northbound,1
346,0346,W Olin & Lake (WB),This stop (#0346) is westbound on the 300 block of OLIN AVE (W) farside LAKE CT,43.053996,-89.387437,MMT,CMAD,0,,farside,westbound,1
349,0349,Breese & Regent (NB),This stop (#0349) is northbound on the 1 block of BREESE TER (N) farside REGENT ST,43.068092,-89.413759,MMT,CMAD,0,,farside,northbound,1
353,0353,W Badger & Fish Hatchery (EB),This stop (#0353) is eastbound on the 1121 block of BADGER RD (W) farside FISH HATCHERY RD,43.038494,-89.403362,MMT,CMAD,0,,farside,eastbound,1
357,0357,Gilson & W Olin (NB),This stop (#0357) is northbound on the 1201 block of GILSON ST nearside OLIN AVE (W),43.053826,-89.390103,MMT,CMAD,0,,nearside,northbound,0
360,0360,S Park & W Olin (SB),This stop (#0360) is southbound on the 1116 block of PARK ST (S) nearside OLIN AVE (W),43.054589,-89.397212,MMT,CMAD,0,,nearside,southbound,1
367,0367,W Olin & Lake (EB),This stop (#0367) is eastbound on the 299 block of OLIN AVE (W) farside LAKE CT,43.053682,-89.386709,MMT,CMAD,0,,farside,eastbound,1
375,0375,S Mills & Vilas (NB),This stop (#0375) is northbound on the 399 block of MILLS ST (S) farside VILAS AVE,43.063417,-89.403898,MMT,CMAD,0,,farside,northbound,1
379,0379,John Nolen & E Olin (NB),This stop (#0379) is northbound on the 499 block of JOHN NOLEN DR farside OLIN AVE (E),43.051603,-89.377887,MMT,CMAD,0,,farside,northbound,1
388,0388,N Park & Spring (SB),This stop (#0388) is southbound on the 100 block of PARK ST (N) nearside SPRING ST,43.069451,-89.401168,MMT,CMAD,0,,nearside,southbound,1
391,0391,Fish Hatchery & Carver (NB),This stop (#0391) is northbound on the 2001 block of FISH HATCHERY RD nearside CARVER ST,43.044438,-89.403805,MMT,CMAD,0,,nearside,northbound,1
392,0392,N Mills & Spring (SB),This stop (#0392) is southbound on the 100 block of MILLS ST (N) nearside SPRING ST,43.069711,-89.40423,MMT,CMAD,0,,nearside,southbound,0
398,0398,Regent & N Randall (WB),This stop (#0398) is westbound on the 1400 block of REGENT ST farside RANDALL AVE (N),43.067877,-89.409353,MMT,CMAD,0,,farside,westbound,1
405,0405,Fish Hatchery & Catalpa (NB),This stop (#0405) is northbound on the 2199 block of FISH HATCHERY RD farside CATALPA RD,43.041851,-89.403818,MMT,CMAD,0,,farside,northbound,1
406,0406,Regent & N Breese (WB),This stop (#0406) is westbound on the 1600 block of REGENT ST farside BREESE TER (N),43.067931,-89.414278,MMT,CMAD,0,,farside,westbound,1
410,0410,Rimrock & E Rusk (SB),This stop (#0410) is southbound on the 2198 block of RIMROCK RD nearside RUSK AVE (E),43.042874,-89.377547,MMT,TMAD,0,,nearside,southbound,0
418,0418,W Washington & N Bedford (WB),This stop (#0418) is westbound on the 598 block of W WASHINGTON AVE nearside BEDFORD ST (N),43.069002,-89.392429,MMT,CMAD,0,,nearside,westbound,1
424,0424,E Olin & Colby (WB),This stop (#0424) is westbound on the 100 block of OLIN AVE (E) nearside COLBY ST,43.053153,-89.38376,MMT,CMAD,0,,nearside,westbound,1
433,0433,Beld & Gilson (NB),This stop (#0433) is northbound on the 1601 block of BELD ST nearside GILSON ST,43.049727,-89.392573,MMT,CMAD,0,,nearside,northbound,0
435,0435,W Johnson & N Lake (EB),This stop (#0435) is eastbound on the 699 block of JOHNSON ST (W) farside LAKE ST (N),43.071921,-89.397094,MMT,CMAD,0,,farside,eastbound,1
438,0438,Linden & N Charter (EB),This stop (#0438) is eastbound on the 498 block of LINDEN DR nearside CHARTER ST (N),43.074985,-89.406401,MMT,UWIS,0,,nearside,eastbound,1
441,0441,N Mills & W Johnson (NB),This stop (#0441) is northbound on the 299 block of MILLS ST (N) nearside JOHNSON ST (W),43.072003,-89.403945,MMT,CMAD,0,,nearside,northbound,1
445,0445,N Mills & Spring (NB),This stop (#0445) is northbound on the 101 block of MILLS ST (N) farside SPRING ST,43.069899,-89.403921,MMT,CMAD,0,,farside,northbound,1
454,0454,Breese & Hoyt (SB),This stop (#0454) is southbound on the 124 block of BREESE TER (N) nearside HOYT ST,43.070438,-89.414055,MMT,CMAD,0,,nearside,southbound,1
455,0455,W Johnson & N Park (EB),This stop (#0455) is eastbound on the 899 block of JOHNSON ST (W) farside PARK ST (N),43.071967,-89.400106,MMT,CMAD,0,,farside,eastbound,1
456,0456,Fish Hatchery & Carver (SB),This stop (#0456) is southbound on the 2000 block of FISH HATCHERY RD farside CARVER ST,43.044304,-89.404113,MMT,TMAD,0,,farside,southbound,1
459,0459,Erin & S Mills (EB),This stop (#0459) is eastbound on the 1099 block of ERIN ST farside MILLS ST (S),43.059774,-89.403665,MMT,CMAD,0,,farside,eastbound,1
465,0465,W Olin & Colby (EB),This stop (#0465) is eastbound on the 101 block of OLIN AVE (W) nearside COLBY ST,43.053055,-89.384217,MMT,CMAD,0,,nearside,eastbound,1
469,0469,W Washington & Southwest (EB),This stop (#0469) is eastbound on the 651 block of W WASHINGTON AVE adjacent SOUTHWEST PATH,43.067543,-89.394121,MMT,CMAD,0,,adjacent,eastbound,1
470,0470,N Bassett & W Dayton (SB),This stop (#0470) is southbound on the 200 block of BASSETT ST (N) nearside DAYTON ST (W),43.071625,-89.39286,MMT,CMAD,0,,nearside,southbound,1
473,0473,W Washington & S Bassett (EB),This stop (#0473) is eastbound on the 499 block of W WASHINGTON AVE farside BASSETT ST (S),43.070228,-89.390293,MMT,CMAD,0,,farside,eastbound,1
475,0475,S Park & Buick (NB),This stop (#0475) is northbound on the 2201 block of PARK ST (S) nearside BUICK ST,43.041625,-89.393786,MMT,CMAD,0,,nearside,northbound,1
480,0480,W Gorham & N Henry (WB),This stop (#0480) is westbound on the 200 block of GORHAM ST (W) farside HENRY ST (N),43.075322,-89.391155,MMT,CMAD,0,,farside,westbound,1
483,0483,N Park & Spring (NB),This stop (#0483) is northbound on the 99 block of PARK ST (N) nearside SPRING ST,43.069254,-89.400712,MMT,CMAD,0,,nearside,northbound,1
488,0488,Linden & N Charter (WB),This stop (#0488) is westbound on the 1200 block of LINDEN DR farside CHARTER ST (N),43.0752,-89.407339,MMT,UWIS,0,,farside,westbound,1
490,0490,N Charter & W Johnson (SB),This stop (#0490) is southbound on the 300 block of CHARTER ST (N) nearside JOHNSON ST (W),43.072299,-89.405883,MMT,CMAD,0,,nearside,southbound,1
492,0492,John Nolen & Lakeside (SB),This stop (#0492) is southbound on the 300 block of JOHN NOLEN DR farside LAKESIDE ST (E),43.055713,-89.381932,MMT,CMAD,0,,farside,southbound,1
496,0496,Koster & Ardmore (WB),This stop (#0496) is westbound on the 198 block of KOSTER ST nearside ARDMORE DR,43.044148,-89.385493,MMT,CMAD,0,,nearside,westbound,1
499,0499,Fish Hatchery & W Badger (NB),This stop (#0499) is northbound on the 2499 block of FISH HATCHERY RD farside BADGER RD (W),43.038914,-89.403757,MMT,CMAD,0,,farside,northbound,1
505,0505,State & W Gilman (EB),This stop (#0505) is eastbound on the 501 block of STATE ST nearside GILMAN ST (W),43.074732,-89.393723,MMT,CMAD,0,,nearside,eastbound,1
506,0506,State & N Frances (WB),This stop (#0506) is westbound on the 600 block of STATE ST farside FRANCES ST (N),43.074974,-89.3955,MMT,CMAD,0,,farside,westbound,1
512,0512,W Washington & N Bassett (WB),This stop (#0512) is westbound on the 500 block of W WASHINGTON AVE farside BASSETT ST (N),43.069986,-89.391021,MMT,CMAD,0,,farside,westbound,1
516,0516,W Washington & Regent (WB),This stop (#0516) is westbound on the 700 block of W WASHINGTON AVE farside REGENT ST,43.066711,-89.395874,MMT,CMAD,0,,farside,westbound,1
519,0519,S Park & Fish Hatchery (NB),This stop (#0519) is northbound on the 999 block of PARK ST (S) farside FISH HATCHERY RD,43.057212,-89.398803,MMT,CMAD,0,,farside,northbound,1
520,0520,S Bassett & W Doty (SB),This stop (#0520) is southbound on the 198 block of BASSETT ST (S) nearside DOTY ST (W),43.068634,-89.388936,MMT,CMAD,0,,nearside,southbound,0
522,0522,E Olin & Expo (WB),This stop (#0522) is westbound on the 200 block of OLIN AVE (E) farside EXPO PKWY,43.052562,-89.381527,MMT,CMAD,0,,farside,westbound,1
530,0530,Fish Hatchery & Appleton (SB),This stop (#0530) is southbound on the 1336 block of FISH HATCHERY RD nearside APPLETON RD,43.051913,-89.399261,MMT,CMAD,0,,nearside,southbound,0
532,0532,Linden & Babcock (WB),This stop (#0532) is westbound on the 1598 block of LINDEN DR nearside BABCOCK DR,43.075254,-89.412549,MMT,UWIS,0,,nearside,westbound,1
533,0533,Regent & N Breese (EB),This stop (#0533) is eastbound on the 1599 block of REGENT ST farside BREESE TER (N),43.067725,-89.413451,MMT,CMAD,0,,farside,eastbound,1
536,0536,Fish Hatchery & Wingra (SB),This stop (#0536) is southbound on the 1398 block of FISH HATCHERY RD nearside WINGRA DR (N),43.05048,-89.399953,MMT,CMAD,0,,nearside,southbound,1
538,0538,N Park & University (SB),This stop (#0538) is southbound on the 398 block of PARK ST (N) farside UNIVERSITY AVE,43.072701,-89.400846,MMT,CMAD,0,,farside,southbound,1
542,0542,Breese & University (SB),This stop (#0542) is southbound on the 398 block of BREESE TER (N) farside UNIVERSITY AVE,43.073132,-89.414055,MMT,CMAD,0,,farside,southbound,1
544,0544,S Broom & W Wilson (SB),This stop (#0544) is southbound on the 298 block of BROOM ST (S) nearside WILSON ST (W),43.069233,-89.386269,MMT,CMAD,0,,nearside,southbound,0
546,0546,S Park & Regent (SB),This stop (#0546) is southbound on the 2 block of PARK ST (S) farside REGENT ST,43.067392,-89.401194,MMT,CMAD,0,,farside,southbound,1
548,0548,Regent & N Mills (WB),This stop (#0548) is westbound on the 1100 block of REGENT ST farside MILLS ST (N),43.067822,-89.404428,MMT,CMAD,0,,farside,westbound,1
549,0549,State & W Gorham (EB),This stop (#0549) is eastbound on the 401 block of STATE ST nearside GORHAM ST (W),43.074705,-89.392056,MMT,CMAD,0,,nearside,eastbound,1
558,0558,N Bedford & W Mifflin (SB),This stop (#0558) is southbound on the 100 block of BEDFORD ST (N) nearside MIFFLIN ST (W),43.0697,-89.393799,MMT,CMAD,0,,nearside,southbound,1
561,0561,N Park & W Dayton (NB),This stop (#0561) is northbound on the 199 block of PARK ST (N) nearside DAYTON ST (W),43.070821,-89.400637,MMT,CMAD,0,,nearside,northbound,1
564,0564,W Wilson & S Hamilton (WB),This stop (#0564) is westbound on the 298 block of WILSON ST (W) nearside HAMILTON ST (S),43.070692,-89.384195,MMT,CMAD,0,,nearside,westbound,1
565,0565,N Rusk & Nygard (NB),This stop (#0565) is northbound on the 2199 block of RUSK AVE (N) farside NYGARD ST,43.041336,-89.384063,MMT,TMAD,0,,farside,northbound,0
567,0567,W Johnson & N Carroll (EB),This stop (#0567) is eastbound on the 101 block of JOHNSON ST (W) nearside CARROLL ST (N),43.075876,-89.388191,MMT,CMAD,0,,nearside,eastbound,1
568,0568,University & N Frances (WB),This stop (#0568) is westbound on the 600 block of UNIVERSITY AVE farside FRANCES ST (N),43.073309,-89.396192,MMT,CMAD,0,,farside,westbound,1
570,0570,Gilson & Cedar (SB),This stop (#0570) is southbound on the 1398 block of GILSON ST nearside CEDAR ST,43.052054,-89.390943,MMT,CMAD,0,,nearside,southbound,0
573,0573,Linden & Henry (EB),This stop (#0573) is eastbound on the 1499 block of LINDEN DR nearside HENRY MALL,43.07503,-89.410339,MMT,UWIS,0,,nearside,eastbound,1
581,0581,W Johnson & N Charter (EB),This stop (#0581) is eastbound on the 1201 block of JOHNSON ST (W) nearside CHARTER ST (N),43.072057,-89.40592,MMT,CMAD,0,,nearside,eastbound,1
582,0582,S Park & Park House (SB),This stop (#0582) is southbound on the 1800 block of PARK ST (S) opposite PARK HOUSE APTS,43.046916,-89.394302,MMT,CMAD,0,,opposite,southbound,0
583,0583,Regent & S Orchard (EB),This stop (#0583) is eastbound on the 1301 block of REGENT ST nearside ORCHARD ST (S),43.067644,-89.407514,MMT,CMAD,0,,nearside,eastbound,0
590,0590,W Badger & Cypress (WB),This stop (#0590) is westbound on the 900 block of BADGER RD (W) farside CYPRESS WAY,43.038645,-89.397699,MMT,CMAD,0,,farside,westbound,1
593,0593,N Broom & W Dayton (NB),This stop (#0593) is northbound on the 201 block of BROOM ST (N) farside DAYTON ST (W),43.073129,-89.391032,MMT,CMAD,0,,farside,northbound,1
597,0597,E Johnson & N Pinckney (EB),This stop (#0597) is eastbound on the 99 block of JOHNSON ST (E) nearside PINCKNEY ST (N),43.077496,-89.38587,MMT,CMAD,0,,nearside,eastbound,0
602,0602,W Olin & Gilson (WB),This stop (#0602) is westbound on the 500 block of OLIN AVE (W) farside GILSON ST,43.054059,-89.390177,MMT,CMAD,0,,farside,westbound,0
608,0608,Regent & N Park (WB),This stop (#0608) is westbound on the 898 block of REGENT ST nearside PARK ST (N),43.067759,-89.400675,MMT,CMAD,0,,nearside,westbound,1
614,0614,W Olin & Lowell (WB),This stop (#0614) is westbound on the 800 block of OLIN AVE (W) farside LOWELL ST,43.054141,-89.39562,MMT,CMAD,0,,farside,westbound,1
619,0619,E Rusk & Rimrock (EB),This stop (#0619) is eastbound on the 399 block of RUSK AVE (E) nearside RIMROCK RD,43.042614,-89.378263,MMT,TMAD,0,,nearside,eastbound,0
621,0621,John Nolen & Lakeside (NB),This stop (#0621) is northbound on the 299 block of JOHN NOLEN DR farside LAKESIDE ST (E),43.056322,-89.381932,MMT,CMAD,0,,farside,northbound,1
624,0624,S Mills & Mound (SB),This stop (#0624) is southbound on the 198 block of MILLS ST (S) nearside MOUND ST,43.065459,-89.404206,MMT,CMAD,0,,nearside,southbound,1
633,0633,W Washington & S Park (EB),This stop (#0633) is eastbound on the 899 block of W WASHINGTON AVE farside PARK ST (S),43.063327,-89.399985,MMT,CMAD,0,,farside,eastbound,1
643,0643,Fisher & Bram (NB),This stop (#0643) is northbound on the 1901 block of FISHER ST nearside BRAM ST,43.045608,-89.39165,MMT,CMAD,0,,nearside,northbound,1
650,0650,John Nolen & Rimrock (SB),This stop (#0650) is southbound on the 701 block of JOHN NOLEN DR farside RIMROCK RD,43.046328,-89.373966,MMT,CMAD,0,,farside,southbound,1
668,0668,W Doty & S Henry (WB),This stop (#0668) is westbound on the 300 block of DOTY ST (W) farside HENRY ST (S),43.071005,-89.385503,MMT,CMAD,0,,farside,westbound,0
670,0670,University & N Lake (WB),This stop (#0670) is westbound on the 700 block of UNIVERSITY AVE farside LAKE ST (N),43.073336,-89.397994,MMT,CMAD,0,,farside,westbound,1
674,0674,E Olin & John Nolen (WB),This stop (#0674) is westbound on the 298 block of OLIN AVE (E) farside JOHN NOLEN DR,43.051836,-89.37959,MMT,CMAD,0,,farside,westbound,1
682,0682,Monroe & Regent (WB),This stop (#0682) is westbound on the 1500 block of MONROE ST farside REGENT ST,43.067698,-89.413167,MMT,CMAD,0,,farside,westbound,0
688,0688,State & W Gilman (WB),This stop (#0688) is westbound on the 498 block of STATE ST nearside GILMAN ST (W),43.074929,-89.392969,MMT,CMAD,0,,nearside,westbound,1
692,0692,University & N Breese (WB),This stop (#0692) is westbound on the 1600 block of UNIVERSITY AVE farside BREESE TER (N),43.073517,-89.414277,MMT,CMAD,0,,farside,westbound,1
694,0694,Gilson & W Olin (SB),This stop (#0694) is southbound on the 1200 block of GILSON ST farside OLIN AVE (W),43.053692,-89.390399,MMT,CMAD,0,,farside,southbound,0
703,0703,S Park & Burr Oak (NB),This stop (#0703) is northbound on the 2001 block of PARK ST (S) nearside BURR OAK LN,43.044015,-89.393797,MMT,CMAD,0,,nearside,northbound,1
706,0706,N Charter & University (SB),This stop (#0706) is southbound on the 400 block of CHARTER ST (N) nearside UNIVERSITY AVE,43.073767,-89.406352,MMT,UWIS,0,,nearside,southbound,1
710,0710,S Bassett & W Washington (SB),This stop (#0710) is southbound on the 2 block of BASSETT ST (S) farside W WASHINGTON AVE,43.069834,-89.390515,MMT,CMAD,0,,farside,southbound,1
715,0715,S Park & Meriter (NB),This stop (#0715) is northbound on the 101 block of PARK ST (S) opposite MERITER HOSPITAL,43.065378,-89.400515,MMT,CMAD,0,,opposite,northbound,1
730,0730,S Park & Burr Oak (SB),This stop (#0730) is southbound on the 1998 block of PARK ST (S) nearside BURR OAK LN,43.044293,-89.394303,MMT,CMAD,0,,nearside,southbound,1
739,0739,N Mills & College (NB),This stop (#0739) is northbound on the 17 block of MILLS ST (N) farside COLLEGE CT,43.068538,-89.403921,MMT,CMAD,0,,farside,northbound,0
741,0741,W Johnson & N Mills (EB),This stop (#0741) is eastbound on the 1101 block of JOHNSON ST (W) nearside MILLS ST (N),43.072039,-89.404278,MMT,CMAD,0,,nearside,eastbound,1
749,0749,S Park & Wingra (NB),This stop (#0749) is northbound on the 1701 block of PARK ST (S) nearside WINGRA DR (W),43.049074,-89.393808,MMT,CMAD,0,,nearside,northbound,1
751,0751,Breese & Hoyt (NB),This stop (#0751) is northbound on the 119 block of BREESE TER (N) nearside HOYT ST,43.070241,-89.413759,MMT,CMAD,0,,nearside,northbound,1
757,0757,N Charter & University (NB),This stop (#0757) is northbound on the 401 block of CHARTER ST (N) farside UNIVERSITY AVE,43.07417,-89.406055,MMT,UWIS,0,,farside,northbound,1
758,0758,E Gorham & N Pinckney (WB),This stop (#0758) is westbound on the 100 block of GORHAM ST (E) nearside PINCKNEY ST (N),43.078463,-89.386659,MMT,CMAD,0,,nearside,westbound,0
765,0765,N Lake & University (NB),This stop (#0765) is northbound on the 399 block of LAKE ST (N) nearside UNIVERSITY AVE,43.073076,-89.397291,MMT,CMAD,0,,nearside,northbound,1
768,0768,W Washington & Southwest (WB),This stop (#0768) is westbound on the 650 block of W WASHINGTON AVE adjacent SOUTHWEST PATH,43.067928,-89.393972,MMT,CMAD,0,,adjacent,westbound,1
770,0770,W Washington & Brittingham (WB),This stop (#0770) is westbound on the 750 block of W WASHINGTON AVE adjacent BRITTINGHAM PARK,43.065055,-89.39822,MMT,CMAD,0,,adjacent,westbound,1
773,0773,N Mills & University (NB),This stop (#0773) is northbound on the 399 block of MILLS ST (N) nearside UNIVERSITY AVE,43.073185,-89.403945,MMT,CMAD,0,,nearside,northbound,1
782,0782,W Badger & Fiedler (WB),This stop (#0782) is westbound on the 1100 block of BADGER RD (W) farside FIEDLER LN,43.03869,-89.401869,MMT,CMAD,0,,farside,westbound,1
791,0791,W Wilson & S Hamilton (EB),This stop (#0791) is eastbound on the 301 block of WILSON ST (W) nearside HAMILTON ST (S),43.070262,-89.384331,MMT,CMAD,0,,nearside,eastbound,0
795,0795,N Park & State (NB),This stop (#0795) is northbound on the 499 block of PARK ST (N) adjacent STATE ST MALL,43.074599,-89.400488,MMT,CMAD,0,,adjacent,northbound,1
803,0803,State & W Johnson (EB),This stop (#0803) is eastbound on the 301 block of STATE ST nearside JOHNSON ST (W),43.074677,-89.390328,MMT,CMAD,0,,nearside,eastbound,1
809,0809,Campus & Babcock (EB),This stop (#0809) is eastbound on the 1501 block of CAMPUS DR nearside BABCOCK DR,43.073177,-89.410858,MMT,CMAD,0,,nearside,eastbound,1
815,0815,Koster & Ardmore (EB),This stop (#0815) is eastbound on the 201 block of KOSTER ST nearside ARDMORE DR,43.044085,-89.3859,MMT,CMAD,0,,nearside,eastbound,1
816,0816,Fish Hatchery & W Badger (SB),This stop (#0816) is southbound on the 2500 block of FISH HATCHERY RD farside BADGER RD (W),43.038377,-89.404275,MMT,CMAD,0,,farside,southbound,1
821,0821,Gilson & Cedar (NB),This stop (#0821) is northbound on the 1401 block of GILSON ST nearside CEDAR ST,43.051723,-89.390808,MMT,CMAD,0,,nearside,northbound,0
828,0828,E Rusk & Rimrock (WB),This stop (#0828) is westbound on the 398 block of RUSK AVE (E) farside RIMROCK RD,43.042838,-89.378645,MMT,TMAD,0,,farside,westbound,1
837,0837,N Mills & W Dayton (NB),This stop (#0837) is northbound on the 199 block of MILLS ST (N) nearside DAYTON ST (W),43.070866,-89.403933,MMT,CMAD,0,,nearside,northbound,1
839,0839,W Johnson & N Broom (EB),This stop (#0839) is eastbound on the 399 block of JOHNSON ST (W) farside BROOM ST (N),43.073639,-89.391365,MMT,CMAD,0,,farside,eastbound,1
840,0840,S Park & W Washington (SB),This stop (#0840) is southbound on the 400 block of PARK ST (S) farside W WASHINGTON AVE,43.06288,-89.401022,MMT,CMAD,0,,farside,southbound,1
841,0841,S Mills & Regent (NB),This stop (#0841) is northbound on the 1 block of MILLS ST (S) nearside REGENT ST,43.06758,-89.403909,MMT,CMAD,0,,nearside,northbound,1
843,0843,Fish Hatchery & Appleton (NB),This stop (#0843) is northbound on the 1347 block of FISH HATCHERY RD nearside APPLETON RD,43.051698,-89.399002,MMT,CMAD,0,,nearside,northbound,1
845,0845,Fish Hatchery & Plaenert (NB),This stop (#0845) is northbound on the 1701 block of FISH HATCHERY RD nearside PLAENERT DR,43.049317,-89.400521,MMT,CMAD,0,,nearside,northbound,1
853,0853,W Dayton & Marion (EB),This stop (#0853) is eastbound on the 545 block of DAYTON ST (W) nearside MARION ST,43.070748,-89.394922,MMT,CMAD,0,,nearside,eastbound,1
862,0862,John Nolen & E Olin (SB),This stop (#0862) is southbound on the 501 block of JOHN NOLEN DR farside OLIN AVE (E),43.05034,-89.3779,MMT,TMAD,0,,farside,southbound,1
866,0866,Regent & Madison (WB),This stop (#0866) is westbound on the 1500 block of REGENT ST nearside MADISON ST,43.067904,-89.411093,MMT,CMAD,0,,nearside,westbound,1
875,0875,Bram & Koster (EB),This stop (#0875) is eastbound on the 401 block of BRAM ST nearside KOSTER ST,43.045572,-89.388935,MMT,CMAD,0,,nearside,eastbound,0
877,0877,W Olin & Lowell (EB),This stop (#0877) is eastbound on the 801 block of OLIN AVE (W) nearside LOWELL ST,43.053926,-89.395435,MMT,CMAD,0,,nearside,eastbound,0
883,0883,State & N Fairchild (EB),This stop (#0883) is eastbound on the 201 block of STATE ST nearside FAIRCHILD ST (N),43.074641,-89.388217,MMT,CMAD,0,,nearside,eastbound,1
890,0890,S Park & Beld (SB),This stop (#0890) is southbound on the 1398 block of PARK ST (S) nearside BELD ST,43.051974,-89.395152,MMT,CMAD,0,,nearside,southbound,1
894,0894,E Rusk & N Rusk (WB),This stop (#0894) is westbound on the 398 block of RUSK AVE (E) nearside RUSK AVE (N),43.039161,-89.383916,MMT,TMAD,0,,nearside,westbound,1
898,0898,State & W Johnson (WB),This stop (#0898) is westbound on the 298 block of STATE ST nearside JOHNSON ST (W),43.074883,-89.389575,MMT,CMAD,0,,nearside,westbound,1
904,0904,Erin & S Park (WB),This stop (#0904) is westbound on the 900 block of ERIN ST farside PARK ST (S),43.059997,-89.401221,MMT,CMAD,0,,farside,westbound,1
906,0906,S Park & Buick (SB),This stop (#0906) is southbound on the 2200 block of PARK ST (S) farside BUICK ST,43.041491,-89.394255,MMT,CMAD,0,,farside,southbound,1
915,0915,Fish Hatchery & Midland (NB),This stop (#0915) is northbound on the 1199 block of FISH HATCHERY RD farside MIDLAND ST,43.054527,-89.398878,MMT,CMAD,0,,farside,northbound,1
916,0916,Breese & Regent (SB),This stop (#0916) is southbound on the 2 block of BREESE TER (N) nearside REGENT ST,43.067958,-89.414056,MMT,CMAD,0,,nearside,southbound,1
918,0918,W Gorham & N Carroll (WB),This stop (#0918) is westbound on the 98 block of GORHAM ST (W) nearside CARROLL ST (N),43.076853,-89.388944,MMT,CMAD,0,,nearside,westbound,0
926,0926,N Lake & State (SB),This stop (#0926) is southbound on the 498 block of LAKE ST (N) farside STATE ST,43.074267,-89.397537,MMT,CMAD,0,,farside,southbound,1
941,0941,W Johnson & N Frances (EB),This stop (#0941) is eastbound on the 599 block of JOHNSON ST (W) farside FRANCES ST (N),43.071894,-89.395489,MMT,CMAD,0,,farside,eastbound,1
956,0956,Koster & Bram (WB),This stop (#0956) is westbound on the 398 block of KOSTER ST nearside BRAM ST,43.045572,-89.388639,MMT,CMAD,0,,nearside,westbound,0
962,0962,Regent & N Park (WB),This stop (#0962) is westbound on the 900 block of REGENT ST farside PARK ST (N),43.067768,-89.40149,MMT,CMAD,0,,farside,westbound,1
965,0965,S Broom & W Washington (NB),This stop (#0965) is northbound on the 1 block of BROOM ST (S) nearside W WASHINGTON AVE,43.071346,-89.388663,MMT,CMAD,0,,nearside,northbound,1
967,0967,W Washington & S Bedford (EB),This stop (#0967) is eastbound on the 599 block of W WASHINGTON AVE farside BEDFORD ST (S),43.068957,-89.392096,MMT,CMAD,0,,farside,eastbound,1
969,0969,N Frances & W Johnson (NB),This stop (#0969) is northbound on the 301 block of FRANCES ST (N) farside JOHNSON ST (W),43.072279,-89.395723,MMT,CMAD,0,,farside,northbound,1
971,0971,Regent & S Randall (EB),This stop (#0971) is eastbound on the 1401 block of REGENT ST nearside RANDALL AVE (S),43.067662,-89.409168,MMT,CMAD,0,,nearside,eastbound,1
989,0989,W Washington & S Broom (EB),This stop (#0989) is eastbound on the 399 block of W WASHINGTON AVE farside BROOM ST (S),43.07149,-89.388515,MMT,CMAD,0,,farside,eastbound,1
1100,1100,E Mifflin & N Pinckney (WB),This stop (#1100) is westbound on the 98 block of MIFFLIN ST (E) farside PINCKNEY ST (N),43.076028,-89.384661,MMT,CMAD,0,,farside,westbound,1
1101,1101,W Main & S Carroll (EB),This stop (#1101) is eastbound on the 99 block of MAIN ST (W) farside CARROLL ST (S),43.073297,-89.383773,MMT,CMAD,0,,farside,eastbound,1
1105,1105,Milwaukee & Walter (EB),This stop (#1105) is eastbound on the 3509 block of MILWAUKEE ST farside WALTER ST,43.098067,-89.326187,MMT,CMAD,0,,farside,eastbound,1
1107,1107,E Washington & S Second (EB),This stop (#1107) is eastbound on the 1999 block of E WASHINGTON AVE nearside SECOND ST (S),43.09369,-89.35699,MMT,CMAD,0,,nearside,eastbound,1
1112,1112,E Washington & Milwaukee (WB),This stop (#1112) is westbound on the 2598 block of E WASHINGTON AVE farside MILWAUKEE ST,43.10023,-89.34913,MMT,CMAD,0,,farside,westbound,1
1115,1115,Commercial & Oak (EB),This stop (#1115) is eastbound on the 2899 block of COMMERCIAL AVE nearside OAK ST,43.106655,-89.34317,MMT,CMAD,0,,nearside,eastbound,1
1116,1116,Fordem & Lakewood (SB),This stop (#1116) is southbound on the 1898 block of FORDEM AVE farside LAKEWOOD GARDEN LN,43.096657,-89.363804,MMT,CMAD,0,,farside,southbound,1
1117,1117,Commercial & Kedzie (EB),This stop (#1117) is eastbound on the 2699 block of COMMERCIAL AVE nearside KEDZIE ST,43.106703,-89.347665,MMT,CMAD,0,,nearside,eastbound,1
1121,1121,E Johnson & N Livingston (EB),This stop (#1121) is eastbound on the 799 block of JOHNSON ST (E) nearside LIVINGSTON ST (N),43.082937,-89.378175,MMT,CMAD,0,,nearside,eastbound,1
1122,1122,N Sherman & Oxford (SB),This stop (#1122) is southbound on the 1000 block of SHERMAN AVE (N) nearside OXFORD PL,43.11014,-89.363978,MMT,CMAD,0,,nearside,southbound,1
1125,1125,S First & E Main (NB),This stop (#1125) is northbound on the 101 block of FIRST ST (S) nearside MAIN ST (E),43.091497,-89.358067,MMT,CMAD,0,,nearside,northbound,0
1127,1127,Atwood & S Marquette (EB),This stop (#1127) is eastbound on the 2899 block of ATWOOD AVE nearside MARQUETTE ST (S),43.093753,-89.342271,MMT,CMAD,0,,nearside,eastbound,0
1131,1131,E Johnson & N Third (EB),This stop (#1131) is eastbound on the 2101 block of JOHNSON ST (E) farside THIRD ST (N),43.097012,-89.358407,MMT,CMAD,0,,farside,eastbound,1
1133,1133,Milwaukee & Waubesa (EB),This stop (#1133) is eastbound on the 2735 block of MILWAUKEE ST nearside WAUBESA ST,43.099878,-89.344116,MMT,CMAD,0,,nearside,eastbound,0
1138,1138,E Gorham & N Blair (WB),This stop (#1138) is westbound on the 600 block of GORHAM ST (E) nearside BLAIR ST (N),43.081488,-89.382374,MMT,CMAD,0,,nearside,westbound,1
1141,1141,E Washington & N Fourth (EB),This stop (#1141) is eastbound on the 2199 block of E WASHINGTON AVE nearside FOURTH ST (N),43.095891,-89.354074,MMT,CMAD,0,,nearside,eastbound,1
1143,1143,Rutledge & Riverside (EB),This stop (#1143) is eastbound on the 1601 block of RUTLEDGE ST farside RIVERSIDE DR,43.086392,-89.354293,MMT,CMAD,0,,farside,eastbound,0
1150,1150,E Wilson & S Franklin (WB),This stop (#1150) is westbound on the 500 block of WILSON ST (E) nearside FRANKLIN ST (S),43.075891,-89.376784,MMT,CMAD,0,,nearside,westbound,1
1151,1151,E Johnson & N Paterson (EB),This stop (#1151) is eastbound on the 901 block of JOHNSON ST (E) farside PATERSON ST (N),43.084548,-89.37584,MMT,CMAD,0,,farside,eastbound,1
1153,1153,Walter & Dawes (NB),This stop (#1153) is northbound on the 101 block of WALTER ST nearside DAWES ST,43.095569,-89.326524,MMT,CMAD,0,,nearside,northbound,1
1156,1156,N Sherman & Commercial (SB),This stop (#1156) is southbound on the 600 block of SHERMAN AVE (N) nearside COMMERCIAL AVE,43.106953,-89.364055,MMT,VMAP,0,,nearside,southbound,1
1157,1157,N Baldwin & Sherman (NB),This stop (#1157) is northbound on the 499 block of BALDWIN ST (N) nearside SHERMAN AVE,43.091942,-89.372674,MMT,CMAD,0,,nearside,northbound,1
1160,1160,E Johnson & N Fourth (WB),This stop (#1160) is westbound on the 2198 block of JOHNSON ST (E) farside FOURTH ST (N),43.098059,-89.357418,MMT,CMAD,0,,farside,westbound,1
1163,1163,W Washington & S Carroll (EB),This stop (#1163) is eastbound on the 101 block of W WASHINGTON AVE nearside CARROLL ST (S),43.073655,-89.385427,MMT,CMAD,0,,nearside,eastbound,1
1164,1164,E Washington & Aberg (WB),This stop (#1164) is westbound on the 3098 block of E WASHINGTON AVE farside ABERG AVE,43.106465,-89.340021,MMT,CMAD,0,,farside,westbound,1
1167,1167,Jenifer & S Livingston (EB),This stop (#1167) is eastbound on the 801 block of JENIFER ST farside LIVINGSTON ST (S),43.077867,-89.369993,MMT,CMAD,0,,farside,eastbound,1
1169,1169,Atwood & Walter (NB),This stop (#1169) is northbound on the 3498 block of ATWOOD AVE farside WALTER ST,43.089707,-89.329817,MMT,CMAD,0,,farside,northbound,1
1177,1177,Fordem & Lakewood (NB),This stop (#1177) is northbound on the 1899 block of FORDEM AVE nearside LAKEWOOD GARDEN LN,43.096916,-89.363631,MMT,CMAD,0,,nearside,northbound,1
1188,1188,Winnebago & Atwood (SB),This stop (#1188) is southbound on the 1998 block of WINNEBAGO ST farside ATWOOD AVE,43.091791,-89.355523,MMT,CMAD,0,,farside,southbound,1
1190,1190,Jenifer & S Brearly (WB),This stop (#1190) is westbound on the 1000 block of JENIFER ST nearside BREARLY ST (S),43.080238,-89.367028,MMT,CMAD,0,,nearside,westbound,1
1191,1191,Oakridge & Miller (EB),This stop (#1191) is eastbound on the 2799 block of OAKRIDGE AVE nearside MILLER AVE,43.090665,-89.343855,MMT,CMAD,0,,nearside,eastbound,1
1194,1194,Jenifer & S Livingston (WB),This stop (#1194) is westbound on the 800 block of JENIFER ST nearside LIVINGSTON ST (S),43.077751,-89.370536,MMT,CMAD,0,,nearside,westbound,1
1199,1199,E Washington & S Ingersoll (EB),This stop (#1199) is eastbound on the 1101 block of E WASHINGTON AVE farside INGERSOLL ST (S),43.084904,-89.369296,MMT,CMAD,0,,farside,eastbound,1
1202,1202,Winnebago & Lafollette (SB),This stop (#1202) is southbound on the 2298 block of WINNEBAGO ST nearside LAFOLLETTE AVE,43.096991,-89.351442,MMT,CMAD,0,,nearside,southbound,1
1206,1206,Milwaukee & Leon (WB),This stop (#1206) is westbound on the 3468 block of MILWAUKEE ST farside LEON ST,43.098597,-89.329459,MMT,TBLO,0,,farside,westbound,1
1208,1208,Williamson & Rogers (WB),This stop (#1208) is westbound on the 1500 block of WILLIAMSON ST nearside ROGERS ST,43.087361,-89.359231,MMT,CMAD,0,,nearside,westbound,1
1209,1209,E Johnson & N Ingersoll (EB),This stop (#1209) is eastbound on the 1101 block of JOHNSON ST (E) farside INGERSOLL ST (N),43.08708,-89.372246,MMT,CMAD,0,,farside,eastbound,1
1211,1211,Atwood & Hudson (EB),This stop (#1211) is eastbound on the 2499 block of ATWOOD AVE nearside HUDSON AVE,43.0938,-89.345259,MMT,CMAD,0,,nearside,eastbound,1
1213,1213,Williamson & S Dickinson (EB),This stop (#1213) is eastbound on the 1401 block of WILLIAMSON ST farside DICKINSON ST (S),43.085884,-89.360418,MMT,CMAD,0,,farside,eastbound,1
1214,1214,E Washington & N Blair (WB),This stop (#1214) is westbound on the 600 block of E WASHINGTON AVE nearside BLAIR ST (N),43.078747,-89.37877,MMT,CMAD,0,,nearside,westbound,1
1218,1218,S Fair Oaks & Atwood (SB),This stop (#1218) is southbound on the 298 block of FAIR OAKS AVE (S) nearside ATWOOD AVE,43.094012,-89.340999,MMT,CMAD,0,,nearside,southbound,1
1220,1220,Milwaukee & N Bryan (WB),This stop (#1220) is westbound on the 3200 block of MILWAUKEE ST nearside BRYAN ST (N),43.099882,-89.335459,MMT,CMAD,0,,nearside,westbound,0
1223,1223,E Johnson & N Hamilton (EB),This stop (#1223) is eastbound on the 299 block of JOHNSON ST (E) nearside HAMILTON ST (N),43.078624,-89.384289,MMT,CMAD,0,,nearside,eastbound,1
1225,1225,Walter & Atwood (NB),This stop (#1225) is northbound on the 533 block of WALTER ST farside ATWOOD AVE,43.089689,-89.329138,MMT,CMAD,0,,farside,northbound,1
1230,1230,E Wilson & King (WB),This stop (#1230) is westbound on the 298 block of WILSON ST (E) farside KING ST,43.074504,-89.378773,MMT,CMAD,0,,farside,westbound,1
1233,1233,E Washington & S Sixth (EB),This stop (#1233) is eastbound on the 2401 block of E WASHINGTON AVE farside SIXTH ST (S),43.098458,-89.350651,MMT,CMAD,0,,farside,eastbound,1
1236,1236,Rutledge & S Thorton (WB),This stop (#1236) is westbound on the 1548 block of RUTLEDGE ST farside THORNTON AVE (S),43.085703,-89.355677,MMT,CMAD,0,,farside,westbound,0
1241,1241,E Washington & S First (EB),This stop (#1241) is eastbound on the 1899 block of E WASHINGTON AVE nearside FIRST ST (S),43.092008,-89.359239,MMT,CMAD,0,,nearside,eastbound,1
1250,1250,E Gorham & N Baldwin (WB),This stop (#1250) is westbound on the 1298 block of GORHAM ST (E) farside BALDWIN ST (N),43.089497,-89.369614,MMT,CMAD,0,,farside,westbound,1
1254,1254,N Sherman & Roth (SB),This stop (#1254) is southbound on the 1100 block of SHERMAN AVE (N) nearside ROTH ST,43.11228,-89.363964,MMT,CMAD,0,,nearside,southbound,1
1256,1256,Rutledge & Walton (WB),This stop (#1256) is westbound on the 1800 block of RUTLEDGE ST nearside WALTON PL,43.08743,-89.353329,MMT,CMAD,0,,nearside,westbound,0
1260,1260,Rogers & Rutledge (SB),This stop (#1260) is southbound on the 698 block of ROGERS ST nearside RUTLEDGE ST,43.085086,-89.356653,MMT,CMAD,0,,nearside,southbound,0
1261,1261,N Hamilton & E Johnson (NB),This stop (#1261) is northbound on the 299 block of HAMILTON ST (N) nearside JOHNSON ST (E),43.078651,-89.383918,MMT,CMAD,0,,nearside,northbound,1
1264,1264,Winnebago & Sutherland (SB),This stop (#1264) is southbound on the 2044 block of WINNEBAGO ST nearside SUTHERLAND CT,43.093375,-89.354286,MMT,CMAD,0,,nearside,southbound,0
1269,1269,E Washington & E Johnson (EB),This stop (#1269) is eastbound on the 2901 block of E WASHINGTON AVE farside JOHNSON ST (E),43.10286,-89.344607,MMT,CMAD,0,,farside,eastbound,1
1270,1270,Walter & Milwaukee (SB),This stop (#1270) is southbound on the 2 block of WALTER ST farside MILWAUKEE ST,43.097852,-89.326706,MMT,CMAD,0,,farside,southbound,1
1278,1278,Packers & Commercial (SB),This stop (#1278) is southbound on the 598 block of PACKERS AVE farside COMMERCIAL AVE,43.106626,-89.355101,MMT,CMAD,0,,farside,southbound,1
1280,1280,E Washington & E Johnson (WB),This stop (#1280) is westbound on the 2898 block of E WASHINGTON AVE farside JOHNSON ST (E),43.102878,-89.345545,MMT,CMAD,0,,farside,westbound,1
1287,1287,Oakridge & Dunning (EB),This stop (#1287) is eastbound on the 2199 block of OAKRIDGE AVE nearside DUNNING ST,43.090283,-89.348955,MMT,CMAD,0,,nearside,eastbound,0
1293,1293,Milwaukee & E Washington (EB),This stop (#1293) is eastbound on the 2601 block of MILWAUKEE ST farside E WASHINGTON AVE,43.100087,-89.348302,MMT,CMAD,0,,farside,eastbound,1
1296,1296,Sherman & Mcguire (SB),This stop (#1296) is southbound on the 2100 block of SHERMAN AVE nearside MCGUIRE ST,43.101662,-89.365245,MMT,CMAD,0,,nearside,southbound,0
1301,1301,North & E Washington (NB),This stop (#1301) is northbound on the 1 block of NORTH ST farside E WASHINGTON AVE,43.100875,-89.349067,MMT,CMAD,0,,farside,northbound,1
1304,1304,Spaight & S Dickinson (WB),This stop (#1304) is westbound on the 1400 block of SPAIGHT ST nearside DICKINSON ST (S),43.084621,-89.359012,MMT,CMAD,0,,nearside,westbound,0
1305,1305,Rutledge & Russell (EB),This stop (#1305) is eastbound on the 1899 block of RUTLEDGE ST nearside RUSSELL ST,43.08819,-89.352205,MMT,CMAD,0,,nearside,eastbound,0
1309,1309,Milwaukee & Leon (EB),This stop (#1309) is eastbound on the 3470 block of MILWAUKEE ST farside LEON ST,43.098248,-89.329213,MMT,CMAD,0,,farside,eastbound,1
1310,1310,W Mifflin & N Carroll (WB),This stop (#1310) is westbound on the 98 block of MIFFLIN ST (W) nearside CARROLL ST (N),43.074954,-89.38618,MMT,CMAD,0,,nearside,westbound,1
1311,1311,E Washington & Milwaukee (EB),This stop (#1311) is eastbound on the 2601 block of E WASHINGTON AVE farside MILWAUKEE ST,43.100534,-89.348327,MMT,CMAD,0,,farside,eastbound,1
1319,1319,E Johnson & N Seventh (EB),This stop (#1319) is eastbound on the 2499 block of JOHNSON ST (E) nearside SEVENTH ST (N),43.10145,-89.352512,MMT,CMAD,0,,nearside,eastbound,0
1323,1323,E Washington & S Webster (EB),This stop (#1323) is eastbound on the 201 block of E WASHINGTON AVE farside WEBSTER ST (S),43.076331,-89.381475,MMT,CMAD,0,,farside,eastbound,1
1324,1324,N Carroll & W Mifflin (SB),This stop (#1324) is southbound on the 98 block of CARROLL ST (N) farside MIFFLIN ST (W),43.074479,-89.38618,MMT,CMAD,0,,farside,southbound,1
1325,1325,E Johnson & N Baldwin (EB),This stop (#1325) is eastbound on the 1301 block of JOHNSON ST (E) farside BALDWIN ST (N),43.089622,-89.368749,MMT,CMAD,0,,farside,eastbound,1
1326,1326,Commercial & North Lawn (WB),This stop (#1326) is westbound on the 2800 block of COMMERCIAL AVE nearside NORTH LAWN AVE,43.106898,-89.34517,MMT,CMAD,0,,nearside,westbound,1
1329,1329,Sherman & Sherman (EB),This stop (#1329) is eastbound on the 1659 block of SHERMAN AVE farside SHERMAN TER,43.097097,-89.368002,MMT,CMAD,0,,farside,eastbound,1
1333,1333,E Johnson & Fordem (EB),This stop (#1333) is eastbound on the 1699 block of JOHNSON ST (E) nearside FORDEM AVE,43.093129,-89.363622,MMT,CMAD,0,,nearside,eastbound,1
1341,1341,N Sherman & Aberg (NB),This stop (#1341) is northbound on the 1299 block of SHERMAN AVE (N) nearside ABERG AVE,43.114089,-89.363653,MMT,CMAD,0,,nearside,northbound,1
1343,1343,Winnebago & S Fourth (NB),This stop (#1343) is northbound on the 2201 block of WINNEBAGO ST farside FOURTH ST (S),43.095326,-89.35242,MMT,CMAD,0,,farside,northbound,1
1350,1350,E Washington & N First (WB),This stop (#1350) is westbound on the 1898 block of E WASHINGTON AVE farside FIRST ST (N),43.091981,-89.360054,MMT,CMAD,0,,farside,westbound,1
1353,1353,S Fair Oaks & Capital City (NB),This stop (#1353) is northbound on the 171 block of FAIR OAKS AVE (S) adjacent CAPITOL CITY PATH,43.095595,-89.338206,MMT,CMAD,0,,adjacent,northbound,0
1354,1354,Sherman & N Thorton (WB),This stop (#1354) is westbound on the 1500 block of SHERMAN AVE nearside THORNTON AVE (N),43.094358,-89.370363,MMT,CMAD,0,,nearside,westbound,1
1358,1358,E Gorham & N Hancock (WB),This stop (#1358) is westbound on the 400 block of GORHAM ST (E) nearside HANCOCK ST (N),43.080361,-89.383979,MMT,CMAD,0,,nearside,westbound,0
1372,1372,S First & E Main (SB),This stop (#1372) is southbound on the 98 block of FIRST ST (S) farside MAIN ST (E),43.091139,-89.357968,MMT,CMAD,0,,farside,southbound,0
1375,1375,North & Hoard (NB),This stop (#1375) is northbound on the 499 block of NORTH ST nearside HOARD ST,43.10486,-89.351002,MMT,CMAD,0,,nearside,northbound,0
1379,1379,Fordem & Mcguire (NB),This stop (#1379) is northbound on the 2101 block of FORDEM AVE farside MCGUIRE ST,43.101124,-89.363887,MMT,CMAD,0,,farside,northbound,1
1380,1380,Aberg & Loftsgordan (WB),This stop (#1380) is westbound on the 2000 block of ABERG AVE nearside LOFTSGORDAN AVE,43.114291,-89.357255,MMT,CMAD,0,,nearside,westbound,1
1382,1382,E Washington & N Second (WB),This stop (#1382) is westbound on the 1998 block of E WASHINGTON AVE farside SECOND ST (N),43.093851,-89.357484,MMT,CMAD,0,,farside,westbound,1
1386,1386,Oakridge & Maple (WB),This stop (#1386) is westbound on the 2998 block of OAKRIDGE AVE farside MAPLE AVE,43.090897,-89.341361,MMT,CMAD,0,,farside,westbound,1
1388,1388,Atwood & Division (WB),This stop (#1388) is westbound on the 2100 block of ATWOOD AVE nearside DIVISION ST,43.093069,-89.350669,MMT,CMAD,0,,nearside,westbound,1
1390,1390,Oak & Hoard (SB),This stop (#1390) is southbound on the 500 block of OAK ST nearside HOARD ST,43.105259,-89.343221,MMT,CMAD,0,,nearside,southbound,0
1391,1391,Atwood & Ohio (EB),This stop (#1391) is eastbound on the 2401 block of ATWOOD AVE farside OHIO AVE,43.093675,-89.346679,MMT,CMAD,0,,farside,eastbound,1
1392,1392,E Washington & N Livingston (WB),This stop (#1392) is westbound on the 800 block of E WASHINGTON AVE nearside LIVINGSTON ST (N),43.081262,-89.375213,MMT,CMAD,0,,nearside,westbound,1
1394,1394,Commercial & North (WB),This stop (#1394) is westbound on the 2498 block of COMMERCIAL AVE farside NORTH ST,43.106929,-89.35163,MMT,CMAD,0,,farside,westbound,1
1397,1397,E Johnson & N Blount (EB),This stop (#1397) is eastbound on the 701 block of JOHNSON ST (E) farside BLOUNT ST (N),43.082051,-89.37941,MMT,CMAD,0,,farside,eastbound,1
1398,1398,Atwood & Evergreen (WB),This stop (#1398) is westbound on the 2298 block of ATWOOD AVE farside EVERGREEN AVE,43.093417,-89.348902,MMT,CMAD,0,,farside,westbound,1
1404,1404,N Hamilton & E Gorham (SB),This stop (#1404) is southbound on the 398 block of HAMILTON ST (N) farside GORHAM ST (E),43.079922,-89.384177,MMT,CMAD,0,,farside,southbound,1
1410,1410,Roth & Ruskin (WB),This stop (#1410) is westbound on the 1798 block of ROTH ST farside RUSKIN ST,43.111509,-89.36184,MMT,CMAD,0,,farside,westbound,0
1412,1412,E Washington & Yahara (WB),This stop (#1412) is westbound on the 1850 block of E WASHINGTON AVE adjacent YAHARA RIVER,43.090111,-89.3626,MMT,CMAD,0,,adjacent,westbound,1
1420,1420,N Fair Oaks & Chicago (SB),This stop (#1420) is southbound on the 200 block of FAIR OAKS AVE (N) nearside CHICAGO AVE,43.101732,-89.331147,MMT,CMAD,0,,nearside,southbound,1
1427,1427,Packers & Commercial (NB),This stop (#1427) is northbound on the 601 block of PACKERS AVE farside COMMERCIAL AVE,43.107091,-89.354359,MMT,CMAD,0,,farside,northbound,1
1435,1435,Commercial & North (EB),This stop (#1435) is eastbound on the 2499 block of COMMERCIAL AVE nearside NORTH ST,43.106714,-89.351445,MMT,CMAD,0,,nearside,eastbound,1
1437,1437,Milwaukee & S Fair Oaks (EB),This stop (#1437) is eastbound on the 3399 block of MILWAUKEE ST nearside FAIR OAKS AVE (S),43.099602,-89.332669,MMT,CMAD,0,,nearside,eastbound,0
1441,1441,Oakridge & Welch (EB),This stop (#1441) is eastbound on the 3199 block of OAKRIDGE AVE nearside WELCH AVE,43.09128,-89.338841,MMT,CMAD,0,,nearside,eastbound,1
1447,1447,Rogers & Spaight (NB),This stop (#1447) is northbound on the 601 block of ROGERS ST nearside SPAIGHT ST,43.085668,-89.357047,MMT,CMAD,0,,nearside,northbound,0
1457,1457,Oakridge & Evergreen (EB),This stop (#1457) is eastbound on the 2311 block of OAKRIDGE AVE farside EVERGREEN AVE,43.090452,-89.347115,MMT,CMAD,0,,farside,eastbound,1
1462,1462,Milwaukee & N Fair Oaks (WB),This stop (#1462) is westbound on the 3398 block of MILWAUKEE ST farside FAIR OAKS AVE (N),43.099808,-89.332508,MMT,CMAD,0,,farside,westbound,1
1468,1468,King & E Wilson (WB),This stop (#1468) is westbound on the 298 block of KING ST farside WILSON ST (E),43.074728,-89.378859,MMT,CMAD,0,,farside,westbound,1
1472,1472,Winnebago & Riverside (SB),This stop (#1472) is southbound on the 1626 block of WINNEBAGO ST nearside RIVERSIDE DR,43.088784,-89.357909,MMT,CMAD,0,,nearside,southbound,1
1474,1474,Milwaukee & Waubesa (WB),This stop (#1474) is westbound on the 2800 block of MILWAUKEE ST nearside WAUBESA ST,43.100066,-89.343177,MMT,CMAD,0,,nearside,westbound,0
1478,1478,Walter & Richard (SB),This stop (#1478) is southbound on the 200 block of WALTER ST farside RICHARD ST,43.093134,-89.326923,MMT,CMAD,0,,farside,southbound,1
1480,1480,Williamson & S Blount (WB),This stop (#1480) is westbound on the 698 block of WILLIAMSON ST farside BLOUNT ST (S),43.07691,-89.373734,MMT,CMAD,0,,farside,westbound,1
1481,1481,E Washington & N Marquette (EB),This stop (#1481) is eastbound on the 3051 block of E WASHINGTON AVE farside MARQUETTE ST (N),43.104353,-89.34153,MMT,CMAD,0,,farside,eastbound,1
1482,1482,Milwaukee & N Marquette (WB),This stop (#1482) is westbound on the 2900 block of MILWAUKEE ST nearside MARQUETTE ST (N),43.10002,-89.341387,MMT,CMAD,0,,nearside,westbound,1
1484,1484,Oakridge & Miller (WB),This stop (#1484) is westbound on the 2800 block of OAKRIDGE AVE nearside MILLER AVE,43.090871,-89.343472,MMT,CMAD,0,,nearside,westbound,1
1486,1486,E Wilson & M L K Junior (WB),This stop (#1486) is westbound on the 2 block of WILSON ST (E) nearside MARTIN LUTHER KING JR BLVD,43.072705,-89.381305,MMT,CMAD,0,,nearside,westbound,1
1488,1488,E Washington & S Fourth (WB),This stop (#1488) is westbound on the 2200 block of E WASHINGTON AVE nearside FOURTH ST (S),43.096428,-89.354049,MMT,CMAD,0,,nearside,westbound,1
1494,1494,E Washington & N Dickinson (WB),This stop (#1494) is westbound on the 1400 block of E WASHINGTON AVE nearside DICKINSON ST (N),43.088796,-89.364515,MMT,CMAD,0,,nearside,westbound,1
1495,1495,N Pinckney & E Mifflin (NB),This stop (#1495) is northbound on the 98 block of PINCKNEY ST (N) nearside MIFFLIN ST (E),43.076189,-89.383821,MMT,CMAD,0,,nearside,northbound,1
1499,1499,Winnebago & Atwood (NB),This stop (#1499) is northbound on the 2001 block of WINNEBAGO ST farside ATWOOD AVE,43.09222,-89.354868,MMT,CMAD,0,,farside,northbound,1
1504,1504,Aberg & Ruskin (WB),This stop (#1504) is westbound on the 1798 block of ABERG AVE farside RUSKIN ST,43.114329,-89.361825,MMT,CMAD,0,,farside,westbound,1
1505,1505,Jenifer & S Ingersoll (EB),This stop (#1505) is eastbound on the 1099 block of JENIFER ST nearside INGERSOLL ST (S),43.081151,-89.365311,MMT,CMAD,0,,nearside,eastbound,1
1509,1509,Williamson & S Blount (EB),This stop (#1509) is eastbound on the 699 block of WILLIAMSON ST farside BLOUNT ST (S),43.07717,-89.372784,MMT,CMAD,0,,farside,eastbound,1
1513,1513,E Washington & Yahara (EB),This stop (#1513) is eastbound on the 1851 block of E WASHINGTON AVE adjacent YAHARA RIVER,43.089771,-89.362415,MMT,CMAD,0,,adjacent,eastbound,1
1518,1518,North & E Johnson (SB),This stop (#1518) is southbound on the 298 block of NORTH ST farside JOHNSON ST (E),43.102845,-89.350325,MMT,CMAD,0,,farside,southbound,1
1519,1519,Oakridge & Maple (EB),This stop (#1519) is eastbound on the 2999 block of OAKRIDGE AVE nearside MAPLE AVE,43.090825,-89.340743,MMT,CMAD,0,,nearside,eastbound,1
1521,1521,N Ingersoll & E Johnson (NB),This stop (#1521) is northbound on the 301 block of INGERSOLL ST (N) farside JOHNSON ST (E),43.087224,-89.372764,MMT,CMAD,0,,farside,northbound,1
1526,1526,Williamson & S Dickinson (WB),This stop (#1526) is westbound on the 1398 block of WILLIAMSON ST farside DICKINSON ST (S),43.085634,-89.361147,MMT,CMAD,0,,farside,westbound,1
1530,1530,Jenifer & S Baldwin (WB),This stop (#1530) is westbound on the 1298 block of JENIFER ST farside BALDWIN ST (S),43.083674,-89.362111,MMT,CMAD,0,,farside,westbound,1
1533,1533,Sherman & Mcguire (EB),This stop (#1533) is eastbound on the 2099 block of SHERMAN AVE nearside MCGUIRE ST,43.101098,-89.365319,MMT,TMAD,0,,nearside,eastbound,1
1536,1536,Jenifer & S Paterson (WB),This stop (#1536) is westbound on the 900 block of JENIFER ST nearside PATERSON ST (S),43.078985,-89.368807,MMT,CMAD,0,,nearside,westbound,1
1538,1538,Winnebago & S Fourth (SB),This stop (#1538) is southbound on the 2200 block of WINNEBAGO ST nearside FOURTH ST (S),43.095317,-89.352766,MMT,CMAD,0,,nearside,southbound,0
1542,1542,Rutledge & Russell (WB),This stop (#1542) is westbound on the 1900 block of RUTLEDGE ST nearside RUSSELL ST,43.088539,-89.352217,MMT,CMAD,0,,nearside,westbound,0
1555,1555,N Fair Oaks & Milwaukee (NB),This stop (#1555) is northbound on the 1 block of FAIR OAKS AVE (N) farside MILWAUKEE ST,43.099942,-89.331767,MMT,CMAD,0,,farside,northbound,0
1558,1558,State & W Dayton (WB),This stop (#1558) is westbound on the 198 block of STATE ST nearside DAYTON ST (W),43.074847,-89.387834,MMT,CMAD,0,,nearside,westbound,1
1559,1559,Jenifer & S Few (EB),This stop (#1559) is eastbound on the 1199 block of JENIFER ST nearside FEW ST (S),43.082421,-89.36352,MMT,CMAD,0,,nearside,eastbound,1
1561,1561,N Sherman & Roth (NB),This stop (#1561) is northbound on the 1101 block of SHERMAN AVE (N) farside ROTH ST,43.111841,-89.363667,MMT,,0,,farside,northbound,0
1565,1565,E Washington & S Paterson (EB),This stop (#1565) is eastbound on the 901 block of E WASHINGTON AVE farside PATERSON ST (S),43.082353,-89.372916,MMT,CMAD,0,,farside,eastbound,1
1566,1566,Oakridge & Dunning (WB),This stop (#1566) is westbound on the 2198 block of OAKRIDGE AVE farside DUNNING ST,43.090489,-89.34914,MMT,CMAD,0,,farside,westbound,0
1575,1575,Winnebago & Linden (NB),This stop (#1575) is northbound on the 2081 block of WINNEBAGO ST nearside LINDEN AVE,43.094171,-89.353335,MMT,CMAD,0,,nearside,northbound,0
1577,1577,Sherman & N Thorton (EB),This stop (#1577) is eastbound on the 1501 block of SHERMAN AVE farside THORNTON AVE (N),43.094439,-89.369906,MMT,CMAD,0,,farside,eastbound,1
1579,1579,E Washington & S Blair (EB),This stop (#1579) is eastbound on the 599 block of E WASHINGTON AVE nearside BLAIR ST (S),43.078282,-89.378684,MMT,CMAD,0,,nearside,eastbound,1
1585,1585,Commercial & Packers (EB),This stop (#1585) is eastbound on the 2301 block of COMMERCIAL AVE farside PACKERS AVE,43.106715,-89.354273,MMT,CMAD,0,,farside,eastbound,1
1587,1587,S Fair Oaks & Atwood (NB),This stop (#1587) is northbound on the 299 block of FAIR OAKS AVE (S) farside ATWOOD AVE,43.093976,-89.340604,MMT,CMAD,0,,farside,northbound,1
1595,1595,E Johnson & N Thorton (EB),This stop (#1595) is eastbound on the 1499 block of JOHNSON ST (E) nearside THORNTON AVE (N),43.091706,-89.365698,MMT,CMAD,0,,nearside,eastbound,1
1598,1598,North & E Mifflin (SB),This stop (#1598) is southbound on the 100 block of NORTH ST nearside MIFFLIN ST (E),43.101395,-89.349622,MMT,CMAD,0,,nearside,southbound,1
1605,1605,Commercial & North Lawn (EB),This stop (#1605) is eastbound on the 2799 block of COMMERCIAL AVE nearside NORTH LAWN AVE,43.106684,-89.345541,MMT,CMAD,0,,nearside,eastbound,0
1615,1615,Jenifer & S Paterson (EB),This stop (#1615) is eastbound on the 899 block of JENIFER ST nearside PATERSON ST (S),43.078654,-89.368869,MMT,CMAD,0,,nearside,eastbound,1
1618,1618,E Washington & N Webster (WB),This stop (#1618) is westbound on the 198 block of E WASHINGTON AVE farside WEBSTER ST (N),43.076009,-89.382488,MMT,CMAD,0,,farside,westbound,1
1624,1624,N First & E Dayton (SB),This stop (#1624) is southbound on the 198 block of FIRST ST (N) nearside DAYTON ST (E),43.093656,-89.361584,MMT,CMAD,0,,nearside,southbound,1
1628,1628,Atwood & Lakeland (WB),This stop (#1628) is westbound on the 3350 block of ATWOOD AVE nearside LAKELAND AVE,43.091735,-89.335704,MMT,CMAD,0,,nearside,westbound,0
1635,1635,North & E Johnson (NB),This stop (#1635) is northbound on the 301 block of NORTH ST farside JOHNSON ST (E),43.103454,-89.350324,MMT,CMAD,0,,farside,northbound,1
1636,1636,E Gorham & N Ingersoll (WB),This stop (#1636) is westbound on the 1100 block of GORHAM ST (E) nearside INGERSOLL ST (N),43.08777,-89.373443,MMT,CMAD,0,,nearside,westbound,1
1640,1640,S Fair Oaks & Capital City (SB),This stop (#1640) is southbound on the 170 block of FAIR OAKS AVE (S) adjacent CAPITOL CITY PATH,43.095828,-89.338268,MMT,CMAD,0,,adjacent,southbound,0
1643,1643,Eastwood & Division (EB),This stop (#1643) is eastbound on the 2051 block of EASTWOOD DR farside DIVISION ST,43.09254,-89.350706,MMT,CMAD,0,,farside,eastbound,1
1645,1645,Williamson & Rogers (EB),This stop (#1645) is eastbound on the 1501 block of WILLIAMSON ST farside ROGERS ST,43.087343,-89.358898,MMT,CMAD,0,,farside,eastbound,1
1650,1650,E Washington & N Ingersoll (WB),This stop (#1650) is westbound on the 1098 block of E WASHINGTON AVE farside INGERSOLL ST (N),43.084716,-89.370296,MMT,CMAD,0,,farside,westbound,1
1659,1659,Winnebago & Lafollette (NB),This stop (#1659) is northbound on the 2299 block of WINNEBAGO ST nearside LAFOLLETTE AVE,43.09665,-89.351381,MMT,CMAD,0,,nearside,northbound,1
1660,1660,E Washington & N Paterson (WB),This stop (#1660) is westbound on the 898 block of E WASHINGTON AVE farside PATERSON ST (N),43.082237,-89.373829,MMT,CMAD,0,,farside,westbound,1
1664,1664,E Gorham & N Blount (WB),This stop (#1664) is westbound on the 700 block of GORHAM ST (E) nearside BLOUNT ST (N),43.082741,-89.380595,MMT,CMAD,0,,nearside,westbound,1
1675,1675,E Johnson & N Fourth (EB),This stop (#1675) is eastbound on the 2201 block of JOHNSON ST (E) farside FOURTH ST (N),43.098301,-89.35669,MMT,CMAD,0,,farside,eastbound,1
1682,1682,Atwood & Ohio (WB),This stop (#1682) is westbound on the 2400 block of ATWOOD AVE nearside OHIO AVE,43.093837,-89.346939,MMT,CMAD,0,,nearside,westbound,1
1689,1689,Jenifer & S Baldwin (EB),This stop (#1689) is eastbound on the 1299 block of JENIFER ST nearside BALDWIN ST (S),43.083665,-89.361729,MMT,CMAD,0,,nearside,eastbound,1
1690,1690,Oakridge & Welch (WB),This stop (#1690) is westbound on the 3200 block of OAKRIDGE AVE nearside WELCH AVE,43.091575,-89.338569,MMT,CMAD,0,,nearside,westbound,1
1692,1692,Fordem & Mcguire (SB),This stop (#1692) is southbound on the 2100 block of FORDEM AVE farside MCGUIRE ST,43.100578,-89.364196,MMT,CMAD,0,,farside,southbound,1
1695,1695,Rutledge & Walton (EB),This stop (#1695) is eastbound on the 1799 block of RUTLEDGE ST nearside WALTON PL,43.08709,-89.353342,MMT,CMAD,0,,nearside,eastbound,0
1700,1700,S Ingersoll & E Washington (SB),This stop (#1700) is southbound on the 98 block of INGERSOLL ST (S) farside E WASHINGTON AVE,43.084098,-89.36905,MMT,CMAD,0,,farside,southbound,0
1704,1704,E Johnson & N Sixth (WB),This stop (#1704) is westbound on the 2400 block of JOHNSON ST (E) nearside SIXTH ST (N),43.100618,-89.354007,MMT,CMAD,0,,nearside,westbound,1
1707,1707,Fordem & E Johnson (NB),This stop (#1707) is northbound on the 1601 block of FORDEM AVE farside JOHNSON ST (E),43.093603,-89.363498,MMT,CMAD,0,,farside,northbound,1
1710,1710,Atwood & S Marquette (WB),This stop (#1710) is westbound on the 2898 block of ATWOOD AVE farside MARQUETTE ST (S),43.093959,-89.342036,MMT,CMAD,0,,farside,westbound,1
1712,1712,Atwood & Rusk (WB),This stop (#1712) is westbound on the 2070 block of ATWOOD AVE nearside RUSK ST,43.092595,-89.352892,MMT,CMAD,0,,nearside,westbound,1
1715,1715,N Sherman & Oxford (NB),This stop (#1715) is northbound on the 999 block of SHERMAN AVE (N) nearside OXFORD PL,43.109495,-89.363707,MMT,CMAD,0,,nearside,northbound,0
1717,1717,N Sherman & Fordem (NB),This stop (#1717) is northbound on the 301 block of SHERMAN AVE (N) farside FORDEM AVE,43.103622,-89.363835,MMT,CMAD,0,,farside,northbound,1
1720,1720,Jenifer & Williamson (WB),This stop (#1720) is westbound on the 700 block of JENIFER ST nearside WILLIAMSON ST,43.077325,-89.372372,MMT,CMAD,0,,nearside,westbound,1
1725,1725,Oakridge & Atwood (EB),This stop (#1725) is eastbound on the 3299 block of OAKRIDGE AVE nearside ATWOOD AVE,43.091932,-89.337025,MMT,CMAD,0,,nearside,eastbound,1
1730,1730,E Washington & N Baldwin (WB),This stop (#1730) is westbound on the 1298 block of E WASHINGTON AVE farside BALDWIN ST (N),43.087266,-89.366689,MMT,CMAD,0,,farside,westbound,1
1737,1737,King & E Wilson (EB),This stop (#1737) is eastbound on the 299 block of KING ST nearside WILSON ST (E),43.074531,-89.379933,MMT,CMAD,0,,nearside,eastbound,1
1748,1748,Milwaukee & Farwell (WB),This stop (#1748) is westbound on the 2656 block of MILWAUKEE ST nearside FARWELL ST,43.100148,-89.346561,MMT,CMAD,0,,nearside,westbound,1
1750,1750,Jenifer & S Few (WB),This stop (#1750) is westbound on the 1200 block of JENIFER ST nearside FEW ST (S),43.082752,-89.363446,MMT,CMAD,0,,nearside,westbound,1
1751,1751,Milwaukee & S Fair Oaks (EB),This stop (#1751) is eastbound on the 3401 block of MILWAUKEE ST farside FAIR OAKS AVE (S),43.099405,-89.331817,MMT,CMAD,0,,farside,eastbound,1
1753,1753,Winnebago & Atwood (NB),This stop (#1753) is northbound on the 1951 block of WINNEBAGO ST nearside ATWOOD AVE,43.091871,-89.355152,MMT,CMAD,0,,nearside,northbound,1
1757,1757,E Washington & Aberg (EB),This stop (#1757) is eastbound on the 3099 block of E WASHINGTON AVE nearside ABERG AVE,43.106375,-89.339477,MMT,CMAD,0,,nearside,eastbound,1
1759,1759,Aberg & Ruskin (EB),This stop (#1759) is eastbound on the 1801 block of ABERG AVE farside RUSKIN ST,43.114105,-89.361072,MMT,CMAD,0,,farside,eastbound,1
1762,1762,S Sixth & E Washington (SB),This stop (#1762) is southbound on the 2 block of SIXTH ST (S) farside E WASHINGTON AVE,43.098065,-89.350861,MMT,CMAD,0,,farside,southbound,1
1766,1766,North & Hoard (SB),This stop (#1766) is southbound on the 500 block of NORTH ST nearside HOARD ST,43.105084,-89.351397,MMT,CMAD,0,,nearside,southbound,0
1767,1767,N Baldwin & E Johnson (NB),This stop (#1767) is northbound on the 301 block of BALDWIN ST (N) farside JOHNSON ST (E),43.089783,-89.369317,MMT,CMAD,0,,farside,northbound,1
1774,1774,Oak & E Washington (SB),This stop (#1774) is southbound on the 400 block of OAK ST nearside E WASHINGTON AVE,43.103889,-89.343296,MMT,CMAD,0,,nearside,southbound,1
1777,1777,Oak & E Washington (NB),This stop (#1777) is northbound on the 401 block of OAK ST farside E WASHINGTON AVE,43.104077,-89.342987,MMT,CMAD,0,,farside,northbound,1
1780,1780,E Johnson & N First (WB),This stop (#1780) is westbound on the 1898 block of JOHNSON ST (E) farside FIRST ST (N),43.094122,-89.362695,MMT,CMAD,0,,farside,westbound,1
1784,1784,Division & Oakridge (SB),This stop (#1784) is southbound on the 600 block of DIVISION ST farside OAKRIDGE AVE,43.090025,-89.351203,MMT,CMAD,0,,farside,southbound,1
1785,1785,Walter & Hargrove (NB),This stop (#1785) is northbound on the 301 block of WALTER ST nearside HARGROVE ST,43.091433,-89.327382,MMT,CMAD,0,,nearside,northbound,1
1786,1786,Walter & Dawes (SB),This stop (#1786) is southbound on the 98 block of WALTER ST nearside DAWES ST,43.095847,-89.326808,MMT,CMAD,0,,nearside,southbound,1
1787,1787,S Pinckney & E Main (NB),This stop (#1787) is northbound on the 99 block of PINCKNEY ST (S) farside MAIN ST (E),43.075033,-89.382303,MMT,CMAD,0,,farside,northbound,1
1790,1790,W Washington & N Fairchild (WB),This stop (#1790) is westbound on the 198 block of W WASHINGTON AVE nearside FAIRCHILD ST (N),43.073405,-89.386181,MMT,CMAD,0,,nearside,westbound,1
1798,1798,E Johnson & N Dickinson (WB),This stop (#1798) is westbound on the 1400 block of JOHNSON ST (E) nearside DICKINSON ST (N),43.09091,-89.367254,MMT,CMAD,0,,nearside,westbound,1
1805,1805,E Washington & S Dickinson (EB),This stop (#1805) is eastbound on the 1399 block of E WASHINGTON AVE nearside DICKINSON ST (S),43.088339,-89.364429,MMT,CMAD,0,,nearside,eastbound,1
1809,1809,Walter & Richard (NB),This stop (#1809) is northbound on the 201 block of WALTER ST nearside RICHARD ST,43.093268,-89.326626,MMT,CMAD,0,,nearside,northbound,1
1812,1812,E Johnson & N Third (WB),This stop (#1812) is westbound on the 2100 block of JOHNSON ST (E) nearside THIRD ST (N),43.097057,-89.358741,MMT,CMAD,0,,nearside,westbound,1
1813,1813,Spaight & S Dickinson (EB),This stop (#1813) is eastbound on the 1399 block of SPAIGHT ST nearside DICKINSON ST (S),43.08429,-89.359074,MMT,CMAD,0,,nearside,eastbound,0
1823,1823,E Main & S Pinckney (EB),This stop (#1823) is eastbound on the 99 block of MAIN ST (E) nearside PINCKNEY ST (S),43.074447,-89.38217,MMT,CMAD,0,,nearside,eastbound,1
1830,1830,Winnebago & S First (SB),This stop (#1830) is southbound on the 1904 block of WINNEBAGO ST nearside FIRST ST (S),43.090431,-89.356623,MMT,CMAD,0,,nearside,southbound,1
1831,1831,E Johnson & N Blair (EB),This stop (#1831) is eastbound on the 601 block of JOHNSON ST (E) farside BLAIR ST (N),43.08079,-89.381201,MMT,CMAD,0,,farside,eastbound,1
1834,1834,E Gorham & N Paterson (WB),This stop (#1834) is westbound on the 900 block of GORHAM ST (E) nearside PATERSON ST (N),43.085229,-89.377062,MMT,CMAD,0,,nearside,westbound,1
1838,1838,Sherman & Sherman (WB),This stop (#1838) is westbound on the 1660 block of SHERMAN AVE nearside SHERMAN TER,43.096918,-89.36841,MMT,CMAD,0,,nearside,westbound,1
1839,1839,E Wilson & S Franklin (EB),This stop (#1839) is eastbound on the 499 block of WILSON ST (E) nearside FRANKLIN ST (S),43.075604,-89.376735,MMT,CMAD,0,,nearside,eastbound,1
1842,1842,Milwaukee & Saint Paul (WB),This stop (#1842) is westbound on the 3112 block of MILWAUKEE ST nearside SAINT PAUL AVE,43.099918,-89.336916,MMT,CMAD,0,,nearside,westbound,0
1843,1843,E Johnson & N First (EB),This stop (#1843) is eastbound on the 1901 block of JOHNSON ST (E) farside FIRST ST (N),43.094265,-89.361707,MMT,CMAD,0,,farside,eastbound,1
1846,1846,E Washington & N Sixth (WB),This stop (#1846) is westbound on the 2398 block of E WASHINGTON AVE farside SIXTH ST (N),43.098298,-89.351552,MMT,CMAD,0,,farside,westbound,1
1847,1847,N First & E Mifflin (NB),This stop (#1847) is northbound on the 101 block of FIRST ST (N) farside MIFFLIN ST (E),43.093235,-89.360634,MMT,CMAD,0,,farside,northbound,1
1852,1852,Commercial & Kedzie (WB),This stop (#1852) is westbound on the 2700 block of COMMERCIAL AVE nearside KEDZIE ST,43.106908,-89.347282,MMT,CMAD,0,,nearside,westbound,1
1855,1855,Milwaukee & S Bryan (EB),This stop (#1855) is eastbound on the 3201 block of MILWAUKEE ST farside BRYAN ST (S),43.099667,-89.335459,MMT,CMAD,0,,farside,eastbound,0
1870,1870,S Butler & E Main (SB),This stop (#1870) is southbound on the 98 block of BUTLER ST (S) nearside MAIN ST (E),43.075937,-89.38034,MMT,CMAD,0,,nearside,southbound,1
1872,1872,M L K Junior & City County (SB),This stop (#1872) is southbound on the 200 block of MARTIN LUTHER KING JR BLVD adjacent CITY-COUNTY BUILDING,43.072813,-89.381885,MMT,CMAD,0,,adjacent,southbound,1
1873,1873,N Fair Oaks & Chicago (NB),This stop (#1873) is northbound on the 201 block of FAIR OAKS AVE (N) nearside CHICAGO AVE,43.101481,-89.330974,MMT,CMAD,0,,nearside,northbound,1
1877,1877,Aberg & N Sherman (EB),This stop (#1877) is eastbound on the 1701 block of ABERG AVE farside SHERMAN AVE (N),43.114124,-89.363344,MMT,CMAD,0,,farside,eastbound,1
1878,1878,Jenifer & S Ingersoll (WB),This stop (#1878) is westbound on the 1100 block of JENIFER ST nearside INGERSOLL ST (S),43.081482,-89.365249,MMT,CMAD,0,,nearside,westbound,1
1883,1883,E Washington & S Baldwin (EB),This stop (#1883) is eastbound on the 1301 block of E WASHINGTON AVE farside BALDWIN ST (S),43.087382,-89.3658,MMT,CMAD,0,,farside,eastbound,1
1886,1886,Milwaukee & Walter (WB),This stop (#1886) is westbound on the 3510 block of MILWAUKEE ST farside WALTER ST,43.098287,-89.326946,MMT,TBLO,0,,farside,westbound,1
1887,1887,Atwood & Evergreen (EB),This stop (#1887) is eastbound on the 2299 block of ATWOOD AVE nearside EVERGREEN AVE,43.093256,-89.348643,MMT,CMAD,0,,nearside,eastbound,1
1890,1890,Walter & Hargrove (SB),This stop (#1890) is southbound on the 300 block of WALTER ST farside HARGROVE ST,43.091353,-89.327851,MMT,CMAD,0,,farside,southbound,1
1892,1892,E Johnson & Fordem (WB),This stop (#1892) is westbound on the 1698 block of JOHNSON ST (E) farside FORDEM AVE,43.092789,-89.364524,MMT,CMAD,0,,farside,westbound,1
1895,1895,Aberg & Loftsgordan (EB),This stop (#1895) is eastbound on the 2001 block of ABERG AVE farside LOFTSGORDAN AVE,43.114077,-89.357811,MMT,CMAD,0,,farside,eastbound,1
1898,1898,Atwood & Hudson (WB),This stop (#1898) is westbound on the 2498 block of ATWOOD AVE nearside HUDSON AVE,43.094014,-89.344876,MMT,CMAD,0,,nearside,westbound,1
1901,1901,Winnebago & S First (NB),This stop (#1901) is northbound on the 1899 block of WINNEBAGO ST farside FIRST ST (S),43.090439,-89.356277,MMT,CMAD,0,,farside,northbound,1
1905,1905,Atwood & Lakeland (EB),This stop (#1905) is eastbound on the 3351 block of ATWOOD AVE nearside LAKELAND AVE,43.0916,-89.336001,MMT,CMAD,0,,nearside,eastbound,0
1910,1910,Spaight & S Baldwin (WB),This stop (#1910) is westbound on the 1300 block of SPAIGHT ST nearside BALDWIN ST (S),43.083342,-89.360791,MMT,CMAD,0,,nearside,westbound,0
1913,1913,Milwaukee & Saint Paul (EB),This stop (#1913) is eastbound on the 3101 block of MILWAUKEE ST nearside SAINT PAUL AVE,43.099713,-89.337374,MMT,CMAD,0,,nearside,eastbound,0
1922,1922,N Sherman & Aberg (SB),This stop (#1922) is southbound on the 1298 block of SHERMAN AVE (N) farside ABERG AVE,43.113954,-89.36395,MMT,CMAD,0,,farside,southbound,1
1923,1923,N Sherman & Commercial (NB),This stop (#1923) is northbound on the 599 block of SHERMAN AVE (N) nearside COMMERCIAL AVE,43.106675,-89.363771,MMT,CMAD,0,,nearside,northbound,1
1927,1927,E Washington & S Livingston (EB),This stop (#1927) is eastbound on the 799 block of E WASHINGTON AVE nearside LIVINGSTON ST (S),43.080805,-89.375127,MMT,CMAD,0,,nearside,eastbound,1
1928,1928,Atwood & Garrison (WB),This stop (#1928) is westbound on the 3200 block of ATWOOD AVE nearside GARRISON ST,43.092855,-89.338407,MMT,CMAD,0,,nearside,westbound,0
1935,1935,Winnebago & Riverside (NB),This stop (#1935) is northbound on the 1625 block of WINNEBAGO ST farside RIVERSIDE DR,43.088632,-89.357687,MMT,CMAD,0,,farside,northbound,1
1936,1936,N Baldwin & Sherman (SB),This stop (#1936) is southbound on the 498 block of BALDWIN ST (N) farside SHERMAN AVE,43.091691,-89.372699,MMT,CMAD,0,,farside,southbound,1
1938,1938,E Washington & N Marquette (WB),This stop (#1938) is westbound on the 3050 block of E WASHINGTON AVE nearside MARQUETTE ST (N),43.104488,-89.342011,MMT,CMAD,0,,nearside,westbound,1
1944,1944,E Johnson & North (WB),This stop (#1944) is westbound on the 2598 block of JOHNSON ST (E) farside NORTH ST,43.103034,-89.350794,MMT,CMAD,0,,farside,westbound,1
1949,1949,E Johnson & N Sixth (EB),This stop (#1949) is eastbound on the 2399 block of JOHNSON ST (E) nearside SIXTH ST (N),43.100287,-89.354069,MMT,CMAD,0,,nearside,eastbound,0
1959,1959,Jenifer & S Brearly (EB),This stop (#1959) is eastbound on the 1001 block of JENIFER ST farside BREARLY ST (S),43.080193,-89.366695,MMT,CMAD,0,,farside,eastbound,1
1961,1961,Atwood & Rusk (EB),This stop (#1961) is eastbound on the 2065 block of ATWOOD AVE farside RUSK ST,43.092434,-89.352633,MMT,CMAD,0,,farside,eastbound,1
1966,1966,N Hamilton & E Johnson (SB),This stop (#1966) is southbound on the 298 block of HAMILTON ST (N) farside JOHNSON ST (E),43.078651,-89.384215,MMT,CMAD,0,,farside,southbound,1
1968,1968,N Sherman & Fordem (SB),This stop (#1968) is southbound on the 300 block of SHERMAN AVE (N) nearside FORDEM AVE,43.103193,-89.364132,MMT,VMAP,0,,nearside,southbound,1
1973,1973,Oak & Commercial (NB),This stop (#1973) is northbound on the 599 block of OAK ST nearside COMMERCIAL AVE,43.106619,-89.342812,MMT,CMAD,0,,nearside,northbound,0
1975,1975,Milwaukee & S Marquette (EB),This stop (#1975) is eastbound on the 2899 block of MILWAUKEE ST nearside MARQUETTE ST (S),43.099814,-89.34177,MMT,CMAD,0,,nearside,eastbound,0
1984,1984,S Fair Oaks & Milwaukee (SB),This stop (#1984) is southbound on the 2 block of FAIR OAKS AVE (S) farside MILWAUKEE ST,43.099468,-89.332768,MMT,CMAD,0,,farside,southbound,0
1986,1986,E Johnson & N Seventh (WB),This stop (#1986) is westbound on the 2498 block of JOHNSON ST (E) farside SEVENTH ST (N),43.101745,-89.3525,MMT,CMAD,0,,farside,westbound,1
1995,1995,Division & Oakridge (NB),This stop (#1995) is northbound on the 601 block of DIVISION ST nearside OAKRIDGE AVE,43.090159,-89.350906,MMT,CMAD,0,,nearside,northbound,1
1996,1996,E Gorham & N Livingston (WB),This stop (#1996) is westbound on the 800 block of GORHAM ST (E) nearside LIVINGSTON ST (N),43.084003,-89.378804,MMT,CMAD,0,,nearside,westbound,0
1998,1998,Oakridge & Evergreen (WB),This stop (#1998) is westbound on the 2300 block of OAKRIDGE AVE nearside EVERGREEN AVE,43.090632,-89.347288,MMT,CMAD,0,,nearside,westbound,1
2003,2003,Linden & Babcock (EB),This stop (#2003) is eastbound on the 1601 block of LINDEN DR nearside BABCOCK DR,43.075048,-89.412931,MMT,UWIS,0,,nearside,eastbound,1
2007,2007,Observatory & Walnut (EB),This stop (#2007) is eastbound on the 2299 block of OBSERVATORY DR farside WALNUT ST,43.076436,-89.424388,MMT,UWIS,0,,farside,eastbound,1
2014,2014,Lake Mendota & Lot R (SB),This stop (#2014) is southbound on the 2601 block of LAKE MENDOTA DR adjacent 800 BLOCK (LOT R),43.089239,-89.43376,MMT,UWIS,0,,adjacent,southbound,1
2018,2018,Eagle Heights & Lot E (WB),This stop (#2018) is westbound on the 300 block of EAGLE HEIGHTS DR adjacent 300 BLOCK (LOT E),43.086293,-89.435043,MMT,UWIS,0,,adjacent,westbound,1
2023,2023,Marsh & Highland (EB),This stop (#2023) is eastbound on the 898 block of MARSH DR farside HIGHLAND AVE,43.0788,-89.429795,MMT,UWIS,0,,farside,eastbound,1
2026,2026,Eagle Heights & Lot F (WB),This stop (#2026) is westbound on the 400 block of EAGLE HEIGHTS DR adjacent 400 BLOCK (LOT F),43.086248,-89.436661,MMT,UWIS,0,,adjacent,westbound,1
2027,2027,University Bay & Lot 60 (NB),This stop (#2027) is northbound on the 1413 block of UNIVERSITY BAY DR adjacent LOT 60 PARKING,43.080259,-89.428067,MMT,UWIS,0,,adjacent,northbound,1
2034,2034,Lake Mendota & Eagle Heights (SB),This stop (#2034) is southbound on the 2401 block of LAKE MENDOTA DR nearside EAGLE HEIGHTS DR,43.086445,-89.433772,MMT,UWIS,0,,nearside,southbound,1
2039,2039,Lake Mendota & Lot N (NB),This stop (#2039) is northbound on the 2799 block of LAKE MENDOTA DR adjacent 600 BLOCK (LOT N),43.089158,-89.438057,MMT,UWIS,0,,adjacent,northbound,1
2041,2041,Lake Mendota & University Bay (NB),This stop (#2041) is northbound on the 1500 block of LAKE MENDOTA DR farside UNIVERSITY BAY DR,43.084252,-89.433487,MMT,UWIS,0,,farside,northbound,1
2048,2048,Lake Mendota & University Bay (SB),This stop (#2048) is southbound on the 1501 block of LAKE MENDOTA DR nearside UNIVERSITY BAY DR,43.084386,-89.433784,MMT,UWIS,0,,nearside,southbound,1
2050,2050,University Bay & Lot 76 (SB),This stop (#2050) is southbound on the 1412 block of UNIVERSITY BAY DR adjacent LOT 76 RAMP,43.080886,-89.428351,MMT,UWIS,0,,adjacent,southbound,1
2053,2053,Walnut & Observatory (NB),This stop (#2053) is northbound on the 701 block of WALNUT ST farside OBSERVATORY DR,43.077045,-89.424906,MMT,UWIS,0,,farside,northbound,1
2054,2054,Eagle Heights & Lot M (WB),This stop (#2054) is westbound on the 500 block of EAGLE HEIGHTS DR adjacent 500 BLOCK (LOT M),43.086668,-89.441612,MMT,UWIS,0,,adjacent,westbound,1
2061,2061,Lake Mendota & Lot P (NB),This stop (#2061) is northbound on the 2701 block of LAKE MENDOTA DR adjacent 700 BLOCK (LOT P),43.089784,-89.437007,MMT,UWIS,0,,adjacent,northbound,1
2064,2064,Elm & Observatory (SB),This stop (#2064) is southbound on the 401 block of ELM DR farside OBSERVATORY DR,43.076176,-89.416079,MMT,UWIS,0,,farside,southbound,1
2071,2071,Lake Mendota & Lot Q (NB),This stop (#2071) is northbound on the 2699 block of LAKE MENDOTA DR adjacent 800 BLOCK (LOT Q),43.090501,-89.435587,MMT,UWIS,0,,adjacent,northbound,1
2076,2076,Marsh & Lot 76 (WB),This stop (#2076) is westbound on the 851 block of MARSH DR adjacent LOT 76 RAMP,43.079006,-89.429203,MMT,UWIS,0,,adjacent,westbound,1
2082,2082,Eagle Heights & Shelter (WB),This stop (#2082) is westbound on the 450 block of EAGLE HEIGHTS DR adjacent BROWN SHELTER,43.086328,-89.438587,MMT,UWIS,0,,adjacent,westbound,1
2088,2088,Observatory & Walnut (WB),This stop (#2088) is westbound on the 2300 block of OBSERVATORY DR farside WALNUT ST,43.076759,-89.42577,MMT,UWIS,0,,farside,westbound,1
2091,2091,Observatory & Highland (EB),This stop (#2091) is eastbound on the 2499 block of OBSERVATORY DR farside HIGHLAND AVE,43.076973,-89.428499,MMT,UWIS,0,,farside,eastbound,1
2100,2100,Sheboygan & State Office (WB),This stop (#2100) is westbound on the 4802 block of SHEBOYGAN AVE adjacent STATE OFFICE BUILDING,43.072931,-89.459792,MMT,CMAD,0,,adjacent,westbound,1
2101,2101,Sheboygan & State Office (EB),This stop (#2101) is eastbound on the 4801 block of SHEBOYGAN AVE opposite STATE OFFICE BUILDING,43.072707,-89.459545,MMT,CMAD,0,,opposite,eastbound,1
2105,2105,Odana & Frederick (EB),This stop (#2105) is eastbound on the 4001 block of ODANA RD nearside FREDERICK LN,43.050928,-89.444318,MMT,CMAD,0,,nearside,eastbound,1
2109,2109,Regent & S Rosa (EB),This stop (#2109) is eastbound on the 5699 block of REGENT ST farside ROSA RD (S),43.067839,-89.477947,MMT,CMAD,0,,farside,eastbound,1
2111,2111,Tokay & S Midvale (EB),This stop (#2111) is eastbound on the 4399 block of TOKAY BLVD farside MIDVALE BLVD (S),43.05338,-89.450588,MMT,CMAD,0,,farside,eastbound,1
2112,2112,Monroe & Glenway (WB),This stop (#2112) is westbound on the 3500 block of MONROE ST farside GLENWAY ST,43.052792,-89.435692,MMT,CMAD,0,,farside,westbound,1
2114,2114,Odana & Anthony (WB),This stop (#2114) is westbound on the 4216 block of ODANA RD nearside ANTHONY LN,43.050812,-89.446761,MMT,CMAD,0,,nearside,westbound,1
2115,2115,Science & S Whitney (EB),This stop (#2115) is eastbound on the 699 block of SCIENCE DR farside WHITNEY WAY (S),43.055997,-89.472668,MMT,CMAD,0,,farside,eastbound,1
2119,2119,Odana & Charles (EB),This stop (#2119) is eastbound on the 4635 block of ODANA RD farside CHARLES LN,43.049646,-89.454461,MMT,CMAD,0,,farside,eastbound,1
2121,2121,Eau Claire & Regent (NB),This stop (#2121) is northbound on the 1 block of EAU CLAIRE AVE (N) farside REGENT ST,43.069331,-89.463074,MMT,CMAD,0,,farside,northbound,1
